$GSENSORD,0.180,-0.120,0.120
$GPRMC,022833.00,A,2505.32317,N,12131.29834,E,20.895,140.35,241116,,,A*50
$GPVTG,140.35,T,,M,20.895,N,38.697,K,A*3B
$GPGGA,022833.00,2505.32317,N,12131.29834,E,1,08,0.93,18.5,M,16.9,M,,*66
$GPGSA,A,3,19,17,06,02,09,05,12,13,,,,,1.99,0.93,1.75*0D
$GPGSV,5,1,18,02,55,354,33,04,42,173,36,05,54,283,31,06,49,060,35*72
$GPGSV,5,2,18,07,05,090,,09,22,045,26,12,22,262,21,13,24,189,17*74
$GPGSV,5,3,18,15,00,209,,17,27,151,39,19,44,151,40,20,08,252,17*75
$GPGSV,5,4,18,25,08,298,,29,00,324,,30,06,121,,40,13,260,*76
$GPGSV,5,5,18,42,51,134,,50,51,134,*73
$GSENSORD,0.250,0.000,0.000
$GPRMC,022834.00,A,2505.31828,N,12131.30161,E,20.173,144.97,241116,,,A*5F
$GPVTG,144.97,T,,M,20.173,N,37.361,K,A*35
$GPGGA,022834.00,2505.31828,N,12131.30161,E,1,08,0.93,20.1,M,16.9,M,,*6B
$GPGSA,A,3,19,17,06,02,09,05,12,13,,,,,1.99,0.93,1.75*0D
$GPGSV,5,1,18,02,55,354,29,04,42,173,39,05,54,283,31,06,49,060,33*70
$GPGSV,5,2,18,07,05,090,,09,22,045,25,12,22,262,23,13,24,189,18*7A
$GPGSV,5,3,18,15,00,209,,17,27,151,25,19,44,151,38,20,08,252,16*76
$GPGSV,5,4,18,25,08,298,,29,00,324,,30,06,121,,40,13,260,*76
$GPGSV,5,5,18,42,51,134,,50,51,134,*73
$GSENSORD,0.060,0.000,0.060
$GPRMC,022835.00,A,2505.31390,N,12131.30509,E,19.123,143.23,241116,,,A*5B
$GPVTG,143.23,T,,M,19.123,N,35.416,K,A*37
$GPGGA,022835.00,2505.31390,N,12131.30509,E,1,08,1.44,20.7,M,16.9,M,,*65
$GPGSA,A,3,19,17,06,02,09,05,12,13,,,,,3.48,1.44,3.16*0F
$GPGSV,5,1,18,02,55,354,27,04,42,173,39,05,54,283,23,06,49,060,27*78
$GPGSV,5,2,18,07,05,090,,09,22,045,21,12,22,262,19,13,24,189,17*78
$GPGSV,5,3,18,15,00,209,,17,27,151,28,19,44,151,34,20,08,252,13*72
$GPGSV,5,4,18,25,08,298,,29,00,324,,30,06,121,,40,13,260,*76
$GPGSV,5,5,18,42,51,134,,50,51,134,*73
$GSENSORD,0.120,0.000,0.060
$GPRMC,022836.00,A,2505.31006,N,12131.30815,E,17.060,142.71,241116,,,A*5A
$GPVTG,142.71,T,,M,17.060,N,31.595,K,A*37
$GPGGA,022836.00,2505.31006,N,12131.30815,E,1,08,1.44,21.3,M,16.9,M,,*6F
$GPGSA,A,3,19,17,06,02,09,05,12,13,,,,,3.48,1.44,3.16*0F
$GPGSV,5,1,18,02,55,354,25,04,42,173,39,05,54,283,21,06,49,060,27*78
$GPGSV,5,2,18,07,05,090,,09,22,045,17,12,22,262,15,13,24,189,16*70
$GPGSV,5,3,18,15,00,209,,17,27,151,32,19,44,151,34,20,08,252,10*7A
$GPGSV,5,4,18,25,08,298,,29,00,324,,30,06,121,,40,13,260,*76
$GPGSV,5,5,18,42,51,134,,50,51,134,*73
$GSENSORD,0.180,0.000,0.060
$GPRMC,022837.00,A,2505.30601,N,12131.31035,E,16.685,148.93,241116,,,A*5A
$GPVTG,148.93,T,,M,16.685,N,30.901,K,A*3D
$GPGGA,022837.00,2505.30601,N,12131.31035,E,1,08,1.44,20.4,M,16.9,M,,*63
$GPGSA,A,3,19,17,06,02,09,05,12,13,,,,,3.48,1.44,3.16*0F
$GPGSV,5,1,18,02,55,354,24,04,42,173,41,05,54,283,22,06,49,060,26*74
$GPGSV,5,2,18,07,05,090,,09,22,045,15,12,22,262,15,13,24,189,17*73
$GPGSV,5,3,18,15,00,209,,17,27,151,35,19,44,151,30,20,08,252,09*71
$GPGSV,5,4,18,25,08,298,,29,00,324,,30,06,121,,40,13,260,*76
$GPGSV,5,5,18,42,51,134,,50,51,134,*73
$GSENSORD,0.180,0.000,0.120
$GPRMC,022838.00,A,2505.30188,N,12131.31316,E,17.697,148.82,241116,,,A*53
$GPVTG,148.82,T,,M,17.697,N,32.774,K,A*31
$GPGGA,022838.00,2505.30188,N,12131.31316,E,1,07,1.44,20.0,M,16.9,M,,*63
$GPGSA,A,3,19,17,06,02,05,12,13,,,,,,3.48,1.44,3.17*07
$GPGSV,5,1,18,02,55,354,21,04,42,173,41,05,54,283,26,06,49,060,24*77
$GPGSV,5,2,18,07,05,090,,09,22,045,,12,22,262,15,13,24,189,20*73
$GPGSV,5,3,18,15,00,209,,17,27,151,36,19,44,151,38,20,08,252,09*7A
$GPGSV,5,4,18,25,08,298,,29,00,324,,30,06,121,,40,13,260,*76
$GPGSV,5,5,18,42,51,134,,50,51,134,*73
$GSENSORD,0.000,0.000,0.000
$GPRMC,022839.00,A,2505.29716,N,12131.31619,E,19.451,149.00,241116,,,A*5C
$GPVTG,149.00,T,,M,19.451,N,36.024,K,A*3A
$GPGGA,022839.00,2505.29716,N,12131.31619,E,1,07,1.44,19.4,M,16.9,M,,*6F
$GPGSA,A,3,19,17,06,02,05,12,13,,,,,,3.48,1.44,3.17*07
$GPGSV,5,1,18,02,55,354,23,04,42,173,41,05,54,283,26,06,49,060,31*71
$GPGSV,5,2,18,07,05,090,,09,22,045,,12,22,262,17,13,24,189,20*71
$GPGSV,5,3,18,15,00,209,,17,27,151,36,19,44,151,39,20,08,252,06*74
$GPGSV,5,4,18,25,08,298,,29,00,324,,30,06,121,,40,13,260,*76
$GPGSV,5,5,18,42,51,134,,50,51,134,*73
$GSENSORD,0.250,0.060,0.060
$GPRMC,022840.00,A,2505.29181,N,12131.31933,E,21.169,148.63,241116,,,A*5C
$GPVTG,148.63,T,,M,21.169,N,39.206,K,A*36
$GPGGA,022840.00,2505.29181,N,12131.31933,E,1,07,1.74,19.5,M,16.9,M,,*6C
$GPGSA,A,3,19,17,06,02,05,12,13,,,,,,4.76,1.74,4.43*08
$GPGSV,5,1,18,02,55,354,27,04,42,173,40,05,54,283,34,06,49,060,35*73
$GPGSV,5,2,18,07,05,090,,09,22,045,,12,22,262,19,13,24,189,20*7F
$GPGSV,5,3,18,15,00,209,,17,27,151,37,19,44,151,36,20,08,252,06*7A
$GPGSV,5,4,18,25,08,298,,29,00,324,,30,06,121,,40,13,260,*76
$GPGSV,5,5,18,42,51,134,,50,51,134,*73
$GSENSORD,0.250,0.060,0.060
$GPRMC,022841.00,A,2505.28647,N,12131.32307,E,22.963,147.21,241116,,,A*57
$GPVTG,147.21,T,,M,22.963,N,42.528,K,A*39
$GPGGA,022841.00,2505.28647,N,12131.32307,E,1,06,1.74,19.7,M,16.9,M,,*6C
$GPGSA,A,3,19,17,06,02,05,13,,,,,,,4.76,1.74,4.43*0B
$GPGSV,5,1,18,02,55,354,28,04,42,173,40,05,54,284,34,06,49,060,31*7F
$GPGSV,5,2,18,07,05,090,,09,22,045,22,12,22,262,,13,24,189,30*76
$GPGSV,5,3,18,15,00,209,,17,27,151,39,19,44,151,34,20,08,252,06*76
$GPGSV,5,4,18,25,08,298,,29,00,324,,30,06,121,,40,13,260,*76
$GPGSV,5,5,18,42,51,134,,50,51,134,*73
$GSENSORD,0.250,0.000,0.120
$GPRMC,022842.00,A,2505.28082,N,12131.32738,E,25.096,145.73,241116,,,A*52
$GPVTG,145.73,T,,M,25.096,N,46.479,K,A*39
$GPGGA,022842.00,2505.28082,N,12131.32738,E,1,06,1.74,19.8,M,16.9,M,,*67
$GPGSA,A,3,19,17,06,02,05,13,,,,,,,4.76,1.74,4.43*0B
$GPGSV,5,1,18,02,55,354,26,04,42,173,40,05,54,284,30,06,49,061,23*77
$GPGSV,5,2,18,07,05,090,,09,22,045,21,12,22,262,19,13,24,189,21*7D
$GPGSV,5,3,18,15,00,209,,17,27,151,34,19,44,151,37,20,08,252,06*78
$GPGSV,5,4,18,25,08,298,,29,00,324,,30,06,121,,40,13,260,*76
$GPGSV,5,5,18,42,51,134,,50,51,134,*73
$GSENSORD,0.310,0.000,0.000
$GPRMC,022843.00,A,2505.27469,N,12131.33144,E,25.690,146.45,241116,,,A*57
$GPVTG,146.45,T,,M,25.690,N,47.579,K,A*3F
$GPGGA,022843.00,2505.27469,N,12131.33144,E,1,06,1.74,20.2,M,16.9,M,,*64
$GPGSA,A,3,19,17,06,02,05,13,,,,,,,4.76,1.74,4.43*0B
$GPGSV,5,1,18,02,55,354,27,04,42,173,30,05,54,284,34,06,49,061,23*75
$GPGSV,5,2,18,07,05,090,,09,22,045,19,12,22,262,20,13,24,189,18*76
$GPGSV,5,3,18,15,00,209,,17,27,151,29,19,44,151,30,20,08,252,06*73
$GPGSV,5,4,18,25,08,298,,29,00,324,,30,06,121,,40,13,260,*76
$GPGSV,5,5,18,42,51,134,,50,51,134,*73
$GSENSORD,0.310,0.000,0.060
$GPRMC,022844.00,A,2505.26821,N,12131.33594,E,27.455,146.15,241116,,,A*54
$GPVTG,146.15,T,,M,27.455,N,50.846,K,A*34
$GPGGA,022844.00,2505.26821,N,12131.33594,E,1,07,1.44,20.5,M,16.9,M,,*6E
$GPGSA,A,3,19,17,06,02,05,12,13,,,,,,3.48,1.44,3.17*07
$GPGSV,5,1,18,02,55,354,26,04,42,173,38,05,54,284,35,06,49,061,21*7F
$GPGSV,5,2,18,07,05,090,,09,22,045,17,12,22,262,26,13,24,189,16*70
$GPGSV,5,3,18,15,00,209,,17,27,151,22,19,44,151,29,20,08,252,06*70
$GPGSV,5,4,18,25,08,298,,29,00,324,,30,06,121,,40,13,260,*76
$GPGSV,5,5,18,42,51,134,,50,51,134,*73
$GSENSORD,0.250,0.000,0.060
$GPRMC,022845.00,A,2505.26038,N,12131.34010,E,30.274,148.72,241116,,,A*57
$GPVTG,148.72,T,,M,30.274,N,56.068,K,A*3A
$GPGGA,022845.00,2505.26038,N,12131.34010,E,1,07,1.44,20.8,M,16.9,M,,*6C
$GPGSA,A,3,19,17,06,02,05,12,13,,,,,,3.48,1.44,3.17*07
$GPGSV,5,1,18,02,55,354,24,04,42,173,39,05,54,284,36,06,49,061,20*7E
$GPGSV,5,2,18,07,05,090,,09,22,044,14,12,22,262,28,13,24,189,15*7F
$GPGSV,5,3,18,15,00,209,,17,27,151,34,19,44,151,33,20,08,252,08*72
$GPGSV,5,4,18,25,08,298,,29,00,324,,30,06,121,,40,13,260,*76
$GPGSV,5,5,18,42,51,134,,50,51,134,*73
$GSENSORD,0.000,0.180,0.000
$GPRMC,022846.00,A,2505.25215,N,12131.34478,E,32.174,149.33,241116,,,A*55
$GPVTG,149.33,T,,M,32.174,N,59.585,K,A*36
$GPGGA,022846.00,2505.25215,N,12131.34478,E,1,06,1.52,21.6,M,16.9,M,,*62
$GPGSA,A,3,19,17,06,02,05,12,,,,,,,3.51,1.52,3.17*0A
$GPGSV,5,1,18,02,55,354,23,04,42,173,39,05,54,284,36,06,49,061,21*78
$GPGSV,5,2,18,07,05,090,,09,22,044,11,12,22,262,17,13,24,189,*72
$GPGSV,5,3,18,15,00,209,,17,27,151,26,19,44,151,29,20,08,252,08*7A
$GPGSV,5,4,18,25,08,298,,29,00,324,,30,06,121,,40,13,260,*76
$GPGSV,5,5,18,42,51,134,,50,51,134,*73
$GSENSORD,0.370,0.120,-0.120
$GPRMC,022847.00,A,2505.24359,N,12131.34989,E,33.742,149.59,241116,,,A*51
$GPVTG,149.59,T,,M,33.742,N,62.491,K,A*34
$GPGGA,022847.00,2505.24359,N,12131.34989,E,1,06,1.52,22.0,M,16.9,M,,*6D
$GPGSA,A,3,19,17,06,02,05,12,,,,,,,3.51,1.52,3.17*0A
$GPGSV,5,1,18,02,55,354,23,04,42,173,39,05,54,284,27,06,49,061,29*70
$GPGSV,5,2,18,07,05,090,,09,22,044,09,12,22,262,16,13,24,189,*7A
$GPGSV,5,3,18,15,00,209,,17,27,151,31,19,44,151,38,20,08,252,08*7C
$GPGSV,5,4,18,25,08,298,,29,00,324,,30,06,121,,40,13,260,*76
$GPGSV,5,5,18,42,51,134,,50,51,134,*73
$GSENSORD,0.370,0.000,0.310
$GPRMC,022848.00,A,2505.23465,N,12131.35503,E,35.069,150.52,241116,,,A*55
$GPVTG,150.52,T,,M,35.069,N,64.947,K,A*3F
$GPGGA,022848.00,2505.23465,N,12131.35503,E,1,07,1.52,22.2,M,16.9,M,,*61
$GPGSA,A,3,19,17,06,02,09,05,12,,,,,,3.51,1.52,3.17*03
$GPGSV,5,1,18,02,55,354,30,04,42,173,40,05,54,284,35,06,49,061,30*77
$GPGSV,5,2,18,07,05,090,,09,22,044,11,12,22,262,14,13,24,189,*71
$GPGSV,5,3,18,15,00,209,,17,27,151,35,19,44,151,37,20,08,252,08*77
$GPGSV,5,4,18,25,08,298,,29,00,324,,30,06,121,,40,13,260,*76
$GPGSV,5,5,18,42,51,134,,50,51,134,*73
$GSENSORD,0.180,0.000,0.120
$GPRMC,022849.00,A,2505.22551,N,12131.36021,E,35.906,150.98,241116,,,A*53
$GPVTG,150.98,T,,M,35.906,N,66.498,K,A*34
$GPGGA,022849.00,2505.22551,N,12131.36021,E,1,06,1.52,22.9,M,16.9,M,,*6B
$GPGSA,A,3,19,17,06,02,05,12,,,,,,,3.51,1.52,3.17*0A
$GPGSV,5,1,18,02,55,354,23,04,42,173,40,05,54,284,37,06,49,061,34*73
$GPGSV,5,2,18,07,05,090,,09,22,044,24,12,22,262,11,13,25,189,21*70
$GPGSV,5,3,18,15,00,209,,17,27,151,32,19,44,151,38,20,08,252,08*7F
$GPGSV,5,4,18,25,08,298,,29,00,324,,30,06,121,,40,13,260,*76
$GPGSV,5,5,18,42,51,134,,50,51,134,*73
$GSENSORD,0.000,0.000,0.250
$GPRMC,022850.00,A,2505.21656,N,12131.36555,E,36.444,151.24,241116,,,A*54
$GPVTG,151.24,T,,M,36.444,N,67.495,K,A*36
$GPGGA,022850.00,2505.21656,N,12131.36555,E,1,05,1.83,22.8,M,16.9,M,,*6C
$GPGSA,A,3,19,17,06,02,05,,,,,,,,5.25,1.83,4.92*0A
$GPGSV,5,1,18,02,55,354,25,04,42,173,39,05,54,284,36,06,49,061,24*7B
$GPGSV,5,2,18,07,05,090,,09,22,044,22,12,22,262,09,13,25,189,19*74
$GPGSV,5,3,18,15,00,209,,17,27,151,35,19,44,151,35,20,08,252,08*75
$GPGSV,5,4,18,25,08,298,,29,00,324,,30,06,121,,40,13,260,*76
$GPGSV,5,5,18,42,51,134,,50,51,134,*73
$GSENSORD,0.180,0.000,0.120
$GPRMC,022851.00,A,2505.20745,N,12131.37069,E,36.475,152.23,241116,,,A*5A
$GPVTG,152.23,T,,M,36.475,N,67.551,K,A*39
$GPGGA,022851.00,2505.20745,N,12131.37069,E,1,07,1.00,23.4,M,16.9,M,,*60
$GPGSA,A,3,19,17,06,02,09,05,12,,,,,,2.04,1.00,1.78*0E
$GPGSV,5,1,18,02,55,354,24,04,42,173,39,05,54,284,36,06,49,061,30*7F
$GPGSV,5,2,18,07,05,090,,09,22,044,23,12,22,262,11,13,25,189,16*73
$GPGSV,5,3,18,15,00,209,,17,27,151,26,19,44,151,35,20,08,252,06*79
$GPGSV,5,4,18,25,08,298,,29,00,324,,30,06,121,,40,13,260,*76
$GPGSV,5,5,18,42,51,134,,50,51,134,*73
$GSENSORD,0.180,0.000,0.250
$GPRMC,022852.00,A,2505.19830,N,12131.37545,E,35.979,153.52,241116,,,A*50
$GPVTG,153.52,T,,M,35.979,N,66.634,K,A*3D
$GPGGA,022852.00,2505.19830,N,12131.37545,E,1,08,0.93,23.7,M,16.9,M,,*68
$GPGSA,A,3,19,17,06,02,09,05,12,13,,,,,1.98,0.93,1.75*0C
$GPGSV,5,1,18,02,55,354,23,04,42,173,39,05,54,284,36,06,49,061,30*78
$GPGSV,5,2,18,07,05,090,,09,22,044,24,12,22,262,13,13,25,189,27*74
$GPGSV,5,3,18,15,00,209,,17,27,151,28,19,44,151,36,20,08,252,06*74
$GPGSV,5,4,18,25,08,298,,29,00,324,,30,06,121,,40,13,260,*76
$GPGSV,5,5,18,42,51,134,,50,51,134,*73
$GSENSORD,0.120,0.000,0.060
$GPRMC,022853.00,A,2505.18937,N,12131.38000,E,35.700,154.73,241116,,,A*59
$GPVTG,154.73,T,,M,35.700,N,66.117,K,A*3F
$GPGGA,022853.00,2505.18937,N,12131.38000,E,1,08,0.93,22.5,M,16.9,M,,*66
$GPGSA,A,3,19,17,06,02,09,05,12,13,,,,,1.98,0.93,1.75*0C
$GPGSV,5,1,18,02,55,354,22,04,42,173,37,05,54,284,35,06,49,061,30*74
$GPGSV,5,2,18,07,05,090,,09,22,044,22,12,22,262,13,13,25,189,23*76
$GPGSV,5,3,18,15,00,209,,17,27,151,31,19,44,151,31,20,08,252,*7D
$GPGSV,5,4,18,25,08,298,,29,00,324,,30,06,121,,40,13,260,*76
$GPGSV,5,5,18,42,51,134,,50,51,134,*73
$GSENSORD,0.000,0.060,-0.120
$GPRMC,022854.00,A,2505.18027,N,12131.38420,E,35.331,156.37,241116,,,A*54
$GPVTG,156.37,T,,M,35.331,N,65.433,K,A*3B
$GPGGA,022854.00,2505.18027,N,12131.38420,E,1,08,0.93,21.9,M,16.9,M,,*60
$GPGSA,A,3,19,17,06,02,09,05,12,13,,,,,1.98,0.93,1.75*0C
$GPGSV,5,1,18,02,55,354,22,04,42,173,41,05,54,284,35,06,49,061,30*75
$GPGSV,5,2,18,07,05,090,,09,22,044,19,12,22,262,15,13,25,189,20*7B
$GPGSV,5,3,18,15,00,209,,17,27,151,37,19,44,151,38,20,08,252,*72
$GPGSV,5,4,18,25,08,298,,29,00,324,,30,06,121,,40,13,260,*76
$GPGSV,5,5,18,42,51,134,,50,51,134,*73
$GSENSORD,0.120,0.060,0.120
$GPRMC,022855.00,A,2505.17139,N,12131.38806,E,34.039,158.19,241116,,,A*54
$GPVTG,158.19,T,,M,34.039,N,63.041,K,A*34
$GPGGA,022855.00,2505.17139,N,12131.38806,E,1,08,0.93,21.7,M,16.9,M,,*66
$GPGSA,A,3,19,17,06,02,09,05,12,13,,,,,1.98,0.93,1.75*0C
$GPGSV,5,1,18,02,55,354,23,04,42,173,38,05,54,284,34,06,49,061,31*7A
$GPGSV,5,2,18,07,05,090,,09,22,044,15,12,22,262,25,13,25,189,14*73
$GPGSV,5,3,18,15,00,209,,17,27,151,29,19,44,151,31,20,08,252,13*76
$GPGSV,5,4,18,25,08,298,,29,00,324,,30,06,121,,40,13,260,*76
$GPGSV,5,5,18,42,51,134,,50,51,134,*73
$GSENSORD,0.180,0.000,0.180
$GPRMC,022856.00,A,2505.16237,N,12131.39124,E,33.189,161.34,241116,,,A*5B
$GPVTG,161.34,T,,M,33.189,N,61.466,K,A*3F
$GPGGA,022856.00,2505.16237,N,12131.39124,E,1,08,0.93,22.9,M,16.9,M,,*6C
$GPGSA,A,3,19,17,06,02,09,05,12,13,,,,,1.98,0.93,1.75*0C
$GPGSV,5,1,18,02,55,354,24,04,42,173,40,05,54,284,32,06,49,061,27*73
$GPGSV,5,2,18,07,05,090,,09,22,044,16,12,22,262,31,13,25,189,15*74
$GPGSV,5,3,18,15,00,209,,17,27,151,29,19,44,151,31,20,08,253,11*75
$GPGSV,5,4,18,25,08,298,,29,00,324,,30,06,121,,40,13,260,*76
$GPGSV,5,5,18,42,51,134,,50,51,134,*73
$GSENSORD,0.060,0.000,0.120
$GPRMC,022857.00,A,2505.15368,N,12131.39419,E,32.493,162.08,241116,,,A*5A
$GPVTG,162.08,T,,M,32.493,N,60.177,K,A*38
$GPGGA,022857.00,2505.15368,N,12131.39419,E,1,08,0.93,23.2,M,16.9,M,,*64
$GPGSA,A,3,19,17,06,02,09,05,12,13,,,,,1.98,0.93,1.75*0C
$GPGSV,5,1,18,02,55,354,24,04,42,173,36,05,54,284,31,06,49,061,26*70
$GPGSV,5,2,18,07,05,090,,09,22,044,15,12,22,262,31,13,25,189,15*77
$GPGSV,5,3,18,15,00,209,,17,27,151,17,19,44,151,32,20,08,253,09*72
$GPGSV,5,4,18,25,08,298,,29,00,324,,30,06,121,,40,13,260,*76
$GPGSV,5,5,18,42,51,134,,50,51,134,*73
$GSENSORD,0.120,0.000,0.000
$GPRMC,022858.00,A,2505.14554,N,12131.39704,E,30.952,162.46,241116,,,A*5A
$GPVTG,162.46,T,,M,30.952,N,57.323,K,A*37
$GPGGA,022858.00,2505.14554,N,12131.39704,E,1,08,0.93,23.3,M,16.9,M,,*6D
$GPGSA,A,3,19,17,06,02,09,05,12,13,,,,,1.98,0.93,1.75*0C
$GPGSV,5,1,18,02,55,354,23,04,42,173,39,05,54,284,29,06,49,061,24*73
$GPGSV,5,2,18,07,05,090,,09,22,044,16,12,22,262,23,13,25,189,17*75
$GPGSV,5,3,18,15,00,209,,17,27,151,30,19,44,151,35,20,08,253,*79
$GPGSV,5,4,18,25,08,298,,29,00,324,,30,06,121,,40,13,260,*76
$GPGSV,5,5,18,42,51,134,,50,51,134,*73
$GSENSORD,0.180,0.000,0.060
$GPRMC,022859.00,A,2505.13733,N,12131.39937,E,30.255,164.45,241116,,,A*58
$GPVTG,164.45,T,,M,30.255,N,56.032,K,A*3C
$GPGGA,022859.00,2505.13733,N,12131.39937,E,1,07,1.44,22.8,M,16.9,M,,*68
$GPGSA,A,3,19,17,06,02,05,12,13,,,,,,3.48,1.44,3.17*07
$GPGSV,5,1,18,02,55,354,29,04,42,173,39,05,54,284,21,06,49,061,25*70
$GPGSV,5,2,18,07,05,090,,09,22,044,,12,22,262,20,13,25,189,20*75
$GPGSV,5,3,18,15,00,209,,17,27,151,29,19,44,151,39,20,08,253,*7D
$GPGSV,5,4,18,25,08,298,,29,00,324,,30,06,121,,40,13,260,*76
$GPGSV,5,5,18,42,51,134,,50,51,134,*73
$GSENSORD,0.060,0.000,0.060
$GPRMC,022900.00,A,2505.12904,N,12131.40121,E,29.813,167.14,241116,,,A*58
$GPVTG,167.14,T,,M,29.813,N,55.213,K,A*39
$GPGGA,022900.00,2505.12904,N,12131.40121,E,1,07,1.44,22.6,M,16.9,M,,*61
$GPGSA,A,3,19,17,06,02,05,12,13,,,,,,3.48,1.44,3.17*07
$GPGSV,5,1,18,02,55,354,30,04,42,173,34,05,54,284,19,06,49,061,26*7D
$GPGSV,5,2,18,07,05,090,,09,22,044,,12,22,262,17,13,25,189,34*74
$GPGSV,5,3,18,15,00,209,,17,27,151,24,19,44,151,31,20,08,253,16*7F
$GPGSV,5,4,18,25,08,298,,29,00,324,,30,06,121,,40,13,260,*76
$GPGSV,5,5,18,42,51,134,,50,51,134,*73
$GSENSORD,0.060,0.000,0.000
$GPRMC,022901.00,A,2505.12107,N,12131.40273,E,28.516,169.65,241116,,,A*57
$GPVTG,169.65,T,,M,28.516,N,52.812,K,A*34
$GPGGA,022901.00,2505.12107,N,12131.40273,E,1,07,1.44,24.3,M,16.9,M,,*6C
$GPGSA,A,3,19,17,06,02,05,12,13,,,,,,3.48,1.44,3.17*07
$GPGSV,5,1,18,02,55,354,25,04,42,173,26,05,54,284,22,06,49,061,26*72
$GPGSV,5,2,18,07,05,090,,09,22,044,,12,22,262,23,13,25,189,30*77
$GPGSV,5,3,18,15,00,209,,17,27,151,30,19,44,151,27,20,08,253,15*7E
$GPGSV,5,4,18,25,08,297,,29,00,324,,30,06,121,,40,13,260,*79
$GPGSV,5,5,18,42,51,134,,50,51,134,*73
$GSENSORD,0.000,0.000,0.120
$GPRMC,022902.00,A,2505.11390,N,12131.40456,E,26.848,169.25,241116,,,A*56
$GPVTG,169.25,T,,M,26.848,N,49.722,K,A*3E
$GPGGA,022902.00,2505.11390,N,12131.40456,E,1,07,1.44,25.6,M,16.9,M,,*65
$GPGSA,A,3,19,17,06,02,05,12,13,,,,,,3.48,1.44,3.17*07
$GPGSV,5,1,18,02,55,354,23,04,42,173,39,05,54,284,20,06,49,061,25*7B
$GPGSV,5,2,18,07,05,090,,09,22,044,24,12,22,262,22,13,25,189,32*72
$GPGSV,5,3,18,15,00,209,,17,27,151,29,19,44,151,34,20,08,253,15*74
$GPGSV,5,4,18,25,08,297,,29,00,324,,30,06,121,,40,13,260,*79
$GPGSV,5,5,18,42,51,134,,50,51,134,*73
$GSENSORD,0.060,0.060,-0.180
$GPRMC,022903.00,A,2505.10752,N,12131.40635,E,24.553,167.83,241116,,,A*5C
$GPVTG,167.83,T,,M,24.553,N,45.473,K,A*32
$GPGGA,022903.00,2505.10752,N,12131.40635,E,1,06,1.75,25.3,M,16.9,M,,*6E
$GPGSV,5,1,18,02,55,354,25,04,42,173,31,05,54,284,18,06,49,061,25*7E
$GPGSV,5,2,18,07,05,090,,09,22,044,23,12,22,262,19,13,25,189,32*7D
$GPGSV,5,3,18,15,00,209,,17,27,151,21,19,44,151,30,20,08,253,16*7B
$GPGSV,5,4,18,25,08,297,,29,00,324,,30,06,121,,40,13,260,*79
$GPGSV,5,5,18,42,51,134,,50,51,134,*73
$GSENSORD,0.000,0.000,0.060
$GPRMC,022904.00,A,2505.10150,N,12131.40799,E,22.295,167.60,241116,,,A*5E
$GPVTG,167.60,T,,M,22.295,N,41.290,K,A*3B
$GPGGA,022904.00,2505.10150,N,12131.40799,E,1,08,1.44,26.8,M,16.9,M,,*6E
$GPGSA,A,3,19,17,06,02,05,12,13,20,,,,,3.48,1.44,3.17*05
$GPGSV,5,1,18,02,55,354,25,04,42,173,26,05,54,284,15,06,49,061,23*73
$GPGSV,5,2,18,07,05,090,,09,22,044,20,12,22,262,18,13,25,189,27*7B
$GPGSV,5,3,18,15,00,209,,17,27,151,22,19,44,151,25,20,08,253,16*7C
$GPGSV,5,4,18,25,08,297,,29,00,324,,30,06,121,,40,13,260,*79
$GPGSV,5,5,18,42,51,134,,50,51,134,*73
$GSENSORD,0.000,0.000,0.000
$GPRMC,022905.00,A,2505.09629,N,12131.40847,E,18.389,169.80,241116,,,A*57
$GPVTG,169.80,T,,M,18.389,N,34.056,K,A*34
$GPGGA,022905.00,2505.09629,N,12131.40847,E,1,09,0.88,29.1,M,16.9,M,,*64
$GPGSA,A,3,19,17,06,02,09,05,12,13,20,,,,1.74,0.88,1.49*09
$GPGSV,5,1,18,02,55,354,22,04,42,173,35,05,54,284,14,06,49,061,22*76
$GPGSV,5,2,18,07,05,090,,09,22,044,18,12,22,262,20,13,25,189,32*7F
$GPGSV,5,3,18,15,00,209,,17,27,151,31,19,44,151,31,20,08,253,17*7A
$GPGSV,5,4,18,25,08,297,,29,00,324,,30,06,121,,40,13,260,*79
$GPGSV,5,5,18,42,51,134,,50,51,134,*73
$GSENSORD,0.000,0.000,0.060
$GPRMC,022906.00,A,2505.09226,N,12131.40849,E,14.224,171.39,241116,,,A*50
$GPVTG,171.39,T,,M,14.224,N,26.342,K,A*30
$GPGGA,022906.00,2505.09226,N,12131.40849,E,1,08,1.35,30.5,M,16.9,M,,*68
$GPGSA,A,3,19,17,06,02,05,12,13,20,,,,,2.81,1.35,2.47*03
$GPGSV,5,1,18,02,55,354,21,04,42,173,39,05,54,284,17,06,49,061,21*79
$GPGSV,5,2,18,07,05,090,,09,22,044,13,12,22,262,21,13,25,189,31*76
$GPGSV,5,3,18,15,00,209,,17,27,151,26,19,44,151,30,20,08,253,17*7D
$GPGSV,5,4,18,25,08,297,,29,00,324,,30,06,120,,40,13,260,*78
$GPGSV,5,5,18,42,51,134,,50,51,134,*73
$GSENSORD,0.060,0.000,0.060
$GPRMC,022907.00,A,2505.08959,N,12131.40829,E,9.879,173.54,241116,,,A*62
$GPVTG,173.54,T,,M,9.879,N,18.296,K,A*02
$GPGGA,022907.00,2505.08959,N,12131.40829,E,1,08,1.35,32.2,M,16.9,M,,*68
$GPGSA,A,3,19,17,06,02,05,12,13,20,,,,,2.81,1.35,2.47*03
$GPGSV,5,1,18,02,55,354,22,04,42,173,37,05,54,284,22,06,49,061,19*79
$GPGSV,5,2,18,07,05,090,,09,22,044,14,12,22,262,21,13,25,189,31*71
$GPGSV,5,3,18,15,00,209,,17,27,151,31,19,44,151,37,20,08,253,16*7D
$GPGSV,5,4,18,25,08,297,,29,00,324,,30,06,120,,40,13,260,*78
$GPGSV,5,5,18,42,51,134,,50,51,134,*73
$GSENSORD,0.060,0.000,0.060
$GPRMC,022908.00,A,2505.08762,N,12131.40840,E,7.337,174.35,241116,,,A*6B
$GPVTG,174.35,T,,M,7.337,N,13.588,K,A*0E
$GPGGA,022908.00,2505.08762,N,12131.40840,E,1,09,0.88,33.1,M,16.9,M,,*6A
$GPGSA,A,3,19,17,06,02,09,05,12,13,20,,,,1.74,0.88,1.49*09
$GPGSV,5,1,18,02,55,354,26,04,42,173,39,05,54,284,26,06,49,061,17*79
$GPGSV,5,2,18,07,05,090,,09,22,044,13,12,22,262,22,13,25,189,32*76
$GPGSV,5,3,18,15,00,209,,17,27,151,29,19,44,151,39,20,08,253,16*7A
$GPGSV,5,4,18,25,08,297,,29,00,324,,30,06,120,,40,13,260,*78
$GPGSV,5,5,18,42,51,134,,50,51,134,*73
$GSENSORD,0.120,0.000,0.000
$GPRMC,022909.00,A,2505.08655,N,12131.40808,E,5.410,175.57,241116,,,A*66
$GPVTG,175.57,T,,M,5.410,N,10.018,K,A*04
$GPGGA,022909.00,2505.08655,N,12131.40808,E,1,08,1.44,33.4,M,16.9,M,,*67
$GPGSA,A,3,19,17,06,02,05,12,13,20,,,,,3.48,1.44,3.17*05
$GPGSV,5,1,18,02,55,354,27,04,42,173,38,05,54,284,26,06,49,061,15*7B
$GPGSV,5,2,18,07,05,090,,09,22,044,,12,22,262,23,13,25,189,31*76
$GPGSV,5,3,18,15,00,209,,17,27,151,27,19,44,151,39,20,08,253,16*74
$GPGSV,5,4,18,25,08,297,,29,00,324,,30,06,120,,40,13,260,*78
$GPGSV,5,5,18,42,51,134,,50,51,134,*73
$GSENSORD,0.120,0.000,0.060
$GPRMC,022910.00,A,2505.08525,N,12131.40838,E,4.761,172.72,241116,,,A*6D
$GPVTG,172.72,T,,M,4.761,N,8.818,K,A*31
$GPGGA,022910.00,2505.08525,N,12131.40838,E,1,08,1.44,33.4,M,16.9,M,,*68
$GPGSA,A,3,19,17,06,02,05,12,13,20,,,,,3.48,1.44,3.17*05
$GPGSV,5,1,18,02,55,354,27,04,42,173,33,05,54,284,25,06,49,061,14*72
$GPGSV,5,2,18,07,05,090,,09,22,044,,12,22,262,23,13,25,189,25*73
$GPGSV,5,3,18,15,00,209,,17,27,151,26,19,44,151,29,20,08,253,16*74
$GPGSV,5,4,18,25,08,297,,29,00,324,,30,06,120,,40,13,260,*78
$GPGSV,5,5,18,42,51,134,,50,51,134,*73
$GSENSORD,0.120,0.000,0.060
$GPRMC,022911.00,A,2505.08394,N,12131.40857,E,4.461,170.61,241116,,,A*6A
$GPVTG,170.61,T,,M,4.461,N,8.262,K,A*35
$GPGGA,022911.00,2505.08394,N,12131.40857,E,1,08,1.44,33.4,M,16.9,M,,*6C
$GPGSA,A,3,19,17,06,02,05,12,13,20,,,,,3.48,1.44,3.17*05
$GPGSV,5,1,18,02,55,354,27,04,42,173,36,05,54,284,25,06,49,061,15*76
$GPGSV,5,2,18,07,05,090,,09,22,044,,12,22,262,23,13,25,189,30*77
$GPGSV,5,3,18,15,00,209,,17,27,151,24,19,44,151,34,20,08,253,19*75
$GPGSV,5,4,18,25,08,297,,29,00,324,,30,06,120,,40,13,260,*78
$GPGSV,5,5,18,42,51,134,,50,51,134,*73
$GSENSORD,0.120,0.000,0.060
$GPRMC,022912.00,A,2505.08272,N,12131.40892,E,4.370,168.37,241116,,,A*64
$GPVTG,168.37,T,,M,4.370,N,8.093,K,A*34
$GPGGA,022912.00,2505.08272,N,12131.40892,E,1,08,1.75,33.4,M,16.9,M,,*6D
$GPGSA,A,3,19,17,06,02,05,12,13,20,,,,,4.80,1.75,4.47*06
$GPGSV,5,1,18,02,55,354,25,04,42,173,31,05,54,284,24,06,49,061,14*73
$GPGSV,5,2,18,07,05,090,,09,22,044,,12,22,262,21,13,25,189,24*70
$GPGSV,5,3,18,15,00,209,,17,27,151,21,19,44,151,28,20,08,253,17*73
$GPGSV,5,4,18,25,08,297,,29,00,324,,30,06,120,,40,13,260,*78
$GPGSV,5,5,18,42,51,134,,50,51,134,*73
$GSENSORD,0.000,0.000,0.000
$GPRMC,022913.00,A,2505.08174,N,12131.40911,E,3.669,166.48,241116,,,A*66
$GPVTG,166.48,T,,M,3.669,N,6.795,K,A*37
$GPGGA,022913.00,2505.08174,N,12131.40911,E,1,08,1.75,33.3,M,16.9,M,,*64
$GPGSA,A,3,19,17,06,02,05,12,13,20,,,,,4.80,1.75,4.47*06
$GPGSV,5,1,18,02,55,354,25,04,42,173,35,05,54,284,31,06,49,061,12*75
$GPGSV,5,2,18,07,05,090,,09,22,044,,12,22,262,20,13,25,189,29*7C
$GPGSV,5,3,18,15,00,209,,17,27,151,18,19,44,151,32,20,08,253,16*73
$GPGSV,5,4,18,25,08,297,,29,00,324,,30,06,120,,40,13,260,*78
$GPGSV,5,5,18,42,51,134,,50,51,134,*73
$GSENSORD,0.120,0.000,0.060
$GPRMC,022914.00,A,2505.08096,N,12131.40914,E,2.372,167.45,241116,,,A*6B
$GPVTG,167.45,T,,M,2.372,N,4.392,K,A*34
$GPGGA,022914.00,2505.08096,N,12131.40914,E,1,07,1.81,34.7,M,16.9,M,,*6C
$GPGSA,A,3,19,17,02,05,12,13,20,,,,,,3.48,1.81,2.98*0C
$GPGSV,5,1,18,02,55,354,26,04,42,173,38,05,54,284,26,06,49,061,09*77
$GPGSV,5,2,18,07,05,090,,09,22,044,15,12,22,262,23,13,25,189,28*7A
$GPGSV,5,3,18,15,00,209,,17,27,151,19,19,44,151,21,20,08,253,14*72
$GPGSV,5,4,18,25,08,297,,29,00,324,,30,06,120,,40,13,260,*78
$GPGSV,5,5,18,42,51,134,,50,51,134,*73
$GSENSORD,0.120,0.000,0.060
$GPRMC,022915.00,A,2505.08036,N,12131.40920,E,1.530,172.73,241116,,,A*65
$GPVTG,172.73,T,,M,1.530,N,2.833,K,A*30
$GPGGA,022915.00,2505.08036,N,12131.40920,E,1,07,1.81,36.0,M,16.9,M,,*65
$GPGSA,A,3,19,17,02,05,12,13,20,,,,,,3.48,1.81,2.98*0C
$GPGSV,5,1,18,02,55,354,27,04,42,173,39,05,54,284,26,06,49,061,08*76
$GPGSV,5,2,18,07,05,090,,09,22,044,13,12,22,262,24,13,25,189,28*7B
$GPGSV,5,3,18,15,00,209,,17,27,151,21,19,44,151,34,20,08,253,16*7F
$GPGSV,5,4,18,25,08,297,,29,00,324,,30,06,120,,40,13,260,*78
$GPGSV,5,5,18,42,51,134,,50,51,134,*73
$GSENSORD,0.060,0.000,0.060
$GPRMC,022916.00,A,2505.07972,N,12131.40967,E,1.033,,241116,,,A*7B
$GPVTG,,T,,M,1.033,N,1.914,K,A*2F
$GPGGA,022916.00,2505.07972,N,12131.40967,E,1,07,1.81,38.2,M,16.9,M,,*6F
$GPGSA,A,3,19,17,02,05,12,13,20,,,,,,3.48,1.81,2.98*0C
$GPGSV,5,1,18,02,55,354,28,04,42,173,39,05,54,284,26,06,49,061,08*79
$GPGSV,5,2,18,07,05,090,,09,22,044,16,12,22,262,29,13,25,189,29*72
$GPGSV,5,3,18,15,00,209,,17,27,151,19,19,44,151,35,20,08,253,15*76
$GPGSV,5,4,18,25,08,297,,29,00,324,,30,06,120,,40,13,260,*78
$GPGSV,5,5,18,42,51,134,,50,51,134,*73
$GSENSORD,0.060,0.000,0.120
$GPRMC,022917.00,A,2505.07937,N,12131.40970,E,0.483,,241116,,,A*73
$GPVTG,,T,,M,0.483,N,0.894,K,A*29
$GPGGA,022917.00,2505.07937,N,12131.40970,E,1,07,1.86,38.8,M,16.9,M,,*64
$GPGSA,A,3,19,17,02,05,12,13,20,,,,,,3.51,1.86,2.98*03
$GPGSV,5,1,18,02,55,354,27,04,42,173,38,05,54,284,31,06,49,061,08*71
$GPGSV,5,2,18,07,05,090,,09,22,044,13,12,22,262,28,13,25,189,33*7D
$GPGSV,5,3,18,15,00,209,,17,27,151,19,19,44,151,35,20,08,253,13*70
$GPGSV,5,4,18,25,08,297,,29,00,324,,30,06,120,,40,13,260,*78
$GPGSV,5,5,18,42,51,134,,50,51,134,*73
$GSENSORD,0.120,0.000,0.000
$GPRMC,022918.00,A,2505.07909,N,12131.40995,E,0.242,,241116,,,A*71
$GPVTG,,T,,M,0.242,N,0.448,K,A*2F
$GPGGA,022918.00,2505.07909,N,12131.40995,E,1,07,1.81,40.1,M,16.9,M,,*6C
$GPGSA,A,3,19,17,02,05,12,13,20,,,,,,3.48,1.81,2.98*0C
$GPGSV,5,1,18,02,55,354,27,04,42,173,38,05,54,284,30,06,49,061,08*70
$GPGSV,5,2,18,07,05,090,,09,22,044,11,12,22,262,27,13,25,189,32*71
$GPGSV,5,3,18,15,00,209,,17,27,151,22,19,44,151,33,20,08,253,12*7F
$GPGSV,5,4,18,25,08,297,,29,00,324,,30,06,120,,40,13,260,*78
$GPGSV,5,5,18,42,51,134,,50,51,134,*73
$GSENSORD,0.120,0.000,0.060
$GPRMC,022919.00,A,2505.07882,N,12131.41023,E,0.125,,241116,,,A*75
$GPVTG,,T,,M,0.125,N,0.232,K,A*26
$GPGGA,022919.00,2505.07882,N,12131.41023,E,1,07,1.81,41.7,M,16.9,M,,*6D
$GPGSA,A,3,19,17,02,05,12,13,20,,,,,,3.48,1.81,2.98*0C
$GPGSV,5,1,18,02,55,354,27,04,42,173,38,05,54,284,30,06,49,061,08*70
$GPGSV,5,2,18,07,05,090,,09,22,044,08,12,22,262,27,13,25,189,33*78
$GPGSV,5,3,18,15,00,209,,17,27,151,24,19,44,151,33,20,08,253,12*79
$GPGSV,5,4,18,25,08,297,,29,00,324,,30,06,120,,40,13,260,*78
$GPGSV,5,5,18,42,51,134,,50,51,134,*73
$GSENSORD,0.180,0.000,0.060
$GPRMC,022920.00,A,2505.07865,N,12131.41025,E,0.111,,241116,,,A*77
$GPVTG,,T,,M,0.111,N,0.206,K,A*26
$GPGGA,022920.00,2505.07865,N,12131.41025,E,1,07,1.86,42.4,M,16.9,M,,*6F
$GPGSA,A,3,19,17,02,05,12,13,20,,,,,,3.51,1.86,2.98*03
$GPGSV,5,1,18,02,55,354,26,04,42,173,37,05,54,284,29,06,49,061,*7E
$GPGSV,5,2,18,07,05,090,,09,22,044,,12,22,262,27,13,25,189,32*71
$GPGSV,5,3,18,15,00,209,,17,27,151,24,19,44,151,32,20,08,253,12*78
$GPGSV,5,4,18,25,08,297,,29,00,324,,30,06,120,,40,13,260,*78
$GPGSV,5,5,18,42,51,134,,50,51,134,*73
$GSENSORD,0.120,0.000,0.060
$GPRMC,022921.00,A,2505.07837,N,12131.41043,E,0.182,,241116,,,A*7B
$GPVTG,,T,,M,0.182,N,0.336,K,A*2E
$GPGGA,022921.00,2505.07837,N,12131.41043,E,1,07,1.81,44.1,M,16.9,M,,*6D
$GPGSA,A,3,19,17,02,05,12,13,20,,,,,,3.48,1.81,2.98*0C
$GPGSV,5,1,18,02,55,354,24,04,42,173,38,05,54,284,29,06,49,061,*73
$GPGSV,5,2,18,07,05,090,,09,22,044,,12,22,262,27,13,25,189,31*72
$GPGSV,5,3,18,15,00,209,,17,27,151,23,19,44,151,31,20,08,253,14*7A
$GPGSV,5,4,18,25,08,297,05,29,00,324,,30,06,120,,40,13,260,*7D
$GPGSV,5,5,18,42,51,134,,50,51,134,*73
$GSENSORD,0.120,0.000,0.060
$GPRMC,022922.00,A,2505.07804,N,12131.41071,E,0.277,,241116,,,A*70
$GPVTG,,T,,M,0.277,N,0.514,K,A*21
$GPGGA,022922.00,2505.07804,N,12131.41071,E,1,07,1.81,46.0,M,16.9,M,,*6C
$GPGSA,A,3,19,17,02,05,12,13,20,,,,,,3.48,1.81,2.98*0C
$GPGSV,5,1,18,02,55,354,23,04,42,173,38,05,54,284,27,06,49,061,*7A
$GPGSV,5,2,18,07,05,090,,09,22,044,,12,22,262,27,13,25,189,30*73
$GPGSV,5,3,18,15,00,209,,17,27,151,23,19,44,151,31,20,08,253,14*7A
$GPGSV,5,4,18,25,08,297,06,29,00,324,,30,06,120,,40,13,260,*7E
$GPGSV,5,5,18,42,51,134,,50,51,134,*73
$GSENSORD,0.000,0.000,0.000
$GPRMC,022923.00,A,2505.07783,N,12131.41073,E,0.220,,241116,,,A*71
$GPVTG,,T,,M,0.220,N,0.407,K,A*20
$GPGGA,022923.00,2505.07783,N,12131.41073,E,1,07,1.86,47.2,M,16.9,M,,*6B
$GPGSA,A,3,19,17,02,05,12,13,20,,,,,,3.51,1.86,2.98*03
$GPGSV,5,1,18,02,55,354,24,04,42,173,38,05,54,284,26,06,49,061,*7C
$GPGSV,5,2,18,07,05,090,,09,22,044,,12,22,262,27,13,25,189,30*73
$GPGSV,5,3,18,15,00,209,,17,27,151,22,19,44,151,31,20,08,253,14*7B
$GPGSV,5,4,18,25,08,297,06,29,00,324,,30,06,120,,40,13,260,*7E
$GPGSV,5,5,18,42,51,134,,50,51,134,*73
$GSENSORD,0.120,0.000,0.060
$GPRMC,022924.00,A,2505.07745,N,12131.41091,E,0.229,,241116,,,A*79
$GPVTG,,T,,M,0.229,N,0.424,K,A*28
$GPGGA,022924.00,2505.07745,N,12131.41091,E,1,07,1.81,49.3,M,16.9,M,,*62
$GPGSA,A,3,19,17,02,05,12,13,20,,,,,,3.48,1.81,2.98*0C
$GPGSV,5,1,18,02,55,355,22,04,42,173,37,05,54,284,26,06,49,061,16*73
$GPGSV,5,2,18,07,05,090,,09,22,044,,12,22,262,27,13,25,189,30*73
$GPGSV,5,3,18,15,00,209,,17,27,151,21,19,44,151,31,20,08,253,14*78
$GPGSV,5,4,18,25,08,297,06,29,00,324,,30,06,120,,40,13,260,*7E
$GPGSV,5,5,18,42,51,134,,50,51,134,*73
$GSENSORD,0.120,0.000,0.060
$GPRMC,022925.00,A,2505.07699,N,12131.41118,E,0.216,,241116,,,A*74
$GPVTG,,T,,M,0.216,N,0.399,K,A*25
$GPGGA,022925.00,2505.07699,N,12131.41118,E,1,07,1.81,52.0,M,16.9,M,,*6A
$GPGSA,A,3,19,17,02,05,12,13,20,,,,,,3.48,1.81,2.98*0C
$GPGSV,5,1,18,02,55,355,20,04,42,173,37,05,54,284,26,06,49,061,14*73
$GPGSV,5,2,18,07,05,090,,09,22,044,,12,22,262,28,13,25,189,30*7C
$GPGSV,5,3,18,15,00,209,,17,27,151,21,19,44,151,31,20,08,253,15*79
$GPGSV,5,4,18,25,08,297,06,29,00,324,,30,06,120,,40,13,260,*7E
$GPGSV,5,5,18,42,51,134,,50,51,134,*73
$GSENSORD,0.120,0.000,0.060
$GPRMC,022926.00,A,2505.07656,N,12131.41148,E,0.193,,241116,,,A*7F
$GPVTG,,T,,M,0.193,N,0.357,K,A*29
$GPGGA,022926.00,2505.07656,N,12131.41148,E,1,07,1.81,54.9,M,16.9,M,,*60
$GPGSA,A,3,19,17,02,05,12,13,20,,,,,,3.48,1.81,2.98*0C
$GPGSV,5,1,18,02,55,355,18,04,43,173,37,05,54,284,27,06,49,061,14*78
$GPGSV,5,2,18,07,05,090,,09,22,044,,12,22,262,27,13,25,189,29*7B
$GPGSV,5,3,18,15,00,209,,17,27,151,21,19,44,151,31,20,08,253,15*79
$GPGSV,5,4,18,25,08,297,06,29,00,324,,30,06,120,,40,13,260,*7E
$GPGSV,5,5,18,42,51,134,,50,51,134,*73
$GSENSORD,0.120,0.000,0.060
$GPRMC,022927.00,A,2505.07622,N,12131.41151,E,0.277,,241116,,,A*7C
$GPVTG,,T,,M,0.277,N,0.513,K,A*26
$GPGGA,022927.00,2505.07622,N,12131.41151,E,1,07,1.86,56.8,M,16.9,M,,*6E
$GPGSA,A,3,19,17,02,05,12,13,20,,,,,,3.51,1.86,2.98*03
$GPGSV,5,1,18,02,55,355,18,04,43,173,37,05,54,285,27,06,49,061,13*7E
$GPGSV,5,2,18,07,05,090,,09,22,044,,12,22,262,27,13,25,189,29*7B
$GPGSV,5,3,18,15,00,209,,17,27,151,22,19,44,151,30,20,08,253,16*78
$GPGSV,5,4,18,25,08,297,06,29,00,324,,30,06,120,,40,13,260,*7E
$GPGSV,5,5,18,42,51,134,,50,51,134,*73
$GSENSORD,0.000,0.000,0.000
$GPRMC,022928.00,A,2505.07605,N,12131.41152,E,0.305,,241116,,,A*71
$GPVTG,,T,,M,0.305,N,0.565,K,A*23
$GPGGA,022928.00,2505.07605,N,12131.41152,E,1,08,1.94,57.5,M,16.9,M,,*67
$GPGSA,A,3,19,17,06,02,05,12,13,20,,,,,4.25,1.94,3.78*0D
$GPGSV,5,1,18,02,55,355,20,04,43,173,37,05,54,285,27,06,48,061,15*72
$GPGSV,5,2,18,07,05,090,,09,22,044,07,12,22,262,27,13,25,189,29*7C
$GPGSV,5,3,18,15,00,209,,17,27,151,22,19,44,151,30,20,08,253,18*76
$GPGSV,5,4,18,25,08,297,06,29,00,324,,30,06,120,,40,13,260,*7E
$GPGSV,5,5,18,42,51,134,,50,51,134,*73
$GSENSORD,0.120,0.000,0.060
$GPRMC,022929.00,A,2505.07579,N,12131.41154,E,0.278,,241116,,,A*75
$GPVTG,,T,,M,0.278,N,0.515,K,A*2F
$GPGGA,022929.00,2505.07579,N,12131.41154,E,1,08,1.94,58.6,M,16.9,M,,*64
$GPGSA,A,3,19,17,06,02,05,12,13,20,,,,,4.25,1.94,3.78*0D
$GPGSV,5,1,18,02,55,355,22,04,43,173,37,05,54,285,27,06,48,061,15*70
$GPGSV,5,2,18,07,05,089,,09,22,044,07,12,22,262,27,13,25,189,29*74
$GPGSV,5,3,18,15,00,209,,17,27,151,23,19,44,151,31,20,08,253,20*7D
$GPGSV,5,4,18,25,08,297,,29,00,324,,30,06,120,,40,13,260,*78
$GPGSV,5,5,18,42,51,134,,50,51,134,*73
$GSENSORD,0.120,0.000,0.060
$GPRMC,022930.00,A,2505.07550,N,12131.41161,E,0.223,,241116,,,A*7E
$GPVTG,,T,,M,0.223,N,0.413,K,A*26
$GPGGA,022930.00,2505.07550,N,12131.41161,E,1,08,1.94,59.9,M,16.9,M,,*6F
$GPGSA,A,3,19,17,06,02,05,12,13,20,,,,,4.25,1.94,3.78*0D
$GPGSV,5,1,18,02,55,355,23,04,43,173,38,05,54,285,28,06,48,061,15*71
$GPGSV,5,2,18,07,05,089,,09,22,044,07,12,22,262,27,13,25,189,30*7C
$GPGSV,5,3,18,15,00,209,,17,27,151,23,19,44,151,33,20,08,253,20*7F
$GPGSV,5,4,18,25,08,297,,29,00,324,,30,06,120,,40,13,260,*78
$GPGSV,5,5,18,42,51,134,,50,51,134,*73
$GSENSORD,0.120,0.000,0.060
$GPRMC,022931.00,A,2505.07528,N,12131.41167,E,0.253,,241116,,,A*71
$GPVTG,,T,,M,0.253,N,0.468,K,A*2D
$GPGGA,022931.00,2505.07528,N,12131.41167,E,1,08,1.94,60.9,M,16.9,M,,*6D
$GPGSA,A,3,19,17,06,02,05,12,13,20,,,,,4.25,1.94,3.78*0D
$GPGSV,5,1,18,02,55,355,25,04,43,173,38,05,54,285,27,06,48,061,14*79
$GPGSV,5,2,18,07,05,089,,09,21,044,07,12,22,262,26,13,25,189,30*7E
$GPGSV,5,3,18,15,00,209,,17,27,151,25,19,44,151,33,20,08,253,18*72
$GPGSV,5,4,18,25,08,297,,29,00,324,,30,06,120,,40,13,260,*78
$GPGSV,5,5,18,42,51,134,,50,51,134,*73
$GSENSORD,0.120,0.000,0.060
$GPRMC,022932.00,A,2505.07510,N,12131.41171,E,0.190,,241116,,,A*72
$GPVTG,,T,,M,0.190,N,0.353,K,A*2E
$GPGGA,022932.00,2505.07510,N,12131.41171,E,1,08,1.94,62.0,M,16.9,M,,*69
$GPGSA,A,3,19,17,06,02,05,12,13,20,,,,,4.25,1.94,3.78*0D
$GPGSV,5,1,18,02,55,355,26,04,43,173,35,05,54,285,28,06,48,061,15*79
$GPGSV,5,2,18,07,05,089,,09,21,044,07,12,22,262,25,13,25,189,28*74
$GPGSV,5,3,18,15,00,209,,17,27,151,24,19,44,151,32,20,08,253,16*7C
$GPGSV,5,4,18,25,08,297,,29,00,324,,30,06,120,,40,13,260,*78
$GPGSV,5,5,18,42,51,134,,50,51,134,*73
$GSENSORD,0.000,0.000,0.000
$GPRMC,022933.00,A,2505.07486,N,12131.41179,E,0.327,,241116,,,A*7B
$GPVTG,,T,,M,0.327,N,0.606,K,A*25
$GPGGA,022933.00,2505.07486,N,12131.41179,E,1,08,1.94,63.2,M,16.9,M,,*6D
$GPGSA,A,3,19,17,06,02,05,12,13,20,,,,,4.25,1.94,3.78*0D
$GPGSV,5,1,18,02,55,355,25,04,43,173,36,05,54,285,27,06,48,061,16*75
$GPGSV,5,2,18,07,05,089,,09,21,044,,12,22,262,25,13,25,189,30*7A
$GPGSV,5,3,18,15,00,209,,17,27,151,24,19,44,151,32,20,08,253,14*7E
$GPGSV,5,4,18,25,08,297,,29,00,324,,30,06,120,,40,13,260,*78
$GPGSV,5,5,18,42,51,134,,50,51,134,*73
$GSENSORD,0.120,0.000,0.060
$GPRMC,022934.00,A,2505.07461,N,12131.41186,E,0.356,,241116,,,A*73
$GPVTG,,T,,M,0.356,N,0.659,K,A*29
$GPGGA,022934.00,2505.07461,N,12131.41186,E,1,08,1.94,64.5,M,16.9,M,,*63
$GPGSA,A,3,19,17,06,02,05,12,13,20,,,,,4.25,1.94,3.78*0D
$GPGSV,5,1,18,02,55,355,25,04,43,173,36,05,54,285,27,06,48,061,18*7B
$GPGSV,5,2,18,07,05,089,,09,21,044,,12,21,262,23,13,25,189,29*77
$GPGSV,5,3,18,15,00,209,,17,27,151,25,19,44,151,32,20,08,253,14*7F
$GPGSV,5,4,18,25,08,297,,29,00,324,,30,06,120,,40,13,260,*78
$GPGSV,5,5,18,42,51,134,,50,51,134,*73
$GSENSORD,0.120,0.000,0.060
$GPRMC,022935.00,A,2505.07434,N,12131.41203,E,0.249,,241116,,,A*73
$GPVTG,,T,,M,0.249,N,0.462,K,A*2C
$GPGGA,022935.00,2505.07434,N,12131.41203,E,1,08,1.94,66.0,M,16.9,M,,*6B
$GPGSA,A,3,19,17,06,02,05,12,13,20,,,,,4.25,1.94,3.78*0D
$GPGSV,5,1,18,02,55,355,26,04,43,173,36,05,54,285,28,06,48,061,17*78
$GPGSV,5,2,18,07,05,089,,09,21,044,,12,21,262,23,13,25,189,30*7F
$GPGSV,5,3,18,15,00,209,,17,27,151,25,19,44,151,32,20,08,253,17*7C
$GPGSV,5,4,18,25,08,297,,29,00,324,,30,06,120,,40,13,260,*78
$GPGSV,5,5,18,42,51,134,,50,51,134,*73
$GSENSORD,0.120,0.000,0.060
$GPRMC,022936.00,A,2505.07409,N,12131.41215,E,0.428,,241116,,,A*78
$GPVTG,,T,,M,0.428,N,0.792,K,A*21
$GPGGA,022936.00,2505.07409,N,12131.41215,E,1,08,1.94,67.5,M,16.9,M,,*65
$GPGSA,A,3,19,17,06,02,05,12,13,20,,,,,4.25,1.94,3.78*0D
$GPGSV,5,1,18,02,55,355,25,04,43,173,37,05,54,285,28,06,48,061,18*75
$GPGSV,5,2,18,07,05,089,,09,21,044,18,12,21,262,22,13,25,189,29*7F
$GPGSV,5,3,18,15,00,209,,17,27,151,26,19,44,151,33,20,08,253,17*7E
$GPGSV,5,4,18,25,08,297,,29,00,324,,30,06,120,,40,13,260,*78
$GPGSV,5,5,18,42,51,134,,50,51,134,*73
$GSENSORD,0.120,0.000,0.060
$GPRMC,022937.00,A,2505.07382,N,12131.41227,E,0.390,,241116,,,A*78
$GPVTG,,T,,M,0.390,N,0.722,K,A*2E
$GPGGA,022937.00,2505.07382,N,12131.41227,E,1,08,1.94,68.9,M,16.9,M,,*62
$GPGSA,A,3,19,17,06,02,05,12,13,20,,,,,4.25,1.94,3.78*0D
$GPGSV,5,1,18,02,55,355,25,04,43,173,37,05,54,285,29,06,48,061,17*7B
$GPGSV,5,2,18,07,05,089,,09,21,044,15,12,21,262,22,13,25,189,29*72
$GPGSV,5,3,18,15,01,209,,17,27,151,26,19,44,151,33,20,08,253,17*7F
$GPGSV,5,4,18,25,08,297,,29,00,324,,30,06,120,,40,13,260,*78
$GPGSV,5,5,18,42,51,134,,50,51,134,*73
$GSENSORD,0.000,0.000,0.000
$GPRMC,022938.00,A,2505.07352,N,12131.41238,E,0.416,,241116,,,A*7D
$GPVTG,,T,,M,0.416,N,0.770,K,A*20
$GPGGA,022938.00,2505.07352,N,12131.41238,E,1,08,1.94,70.4,M,16.9,M,,*6A
$GPGSA,A,3,19,17,06,02,05,12,13,20,,,,,4.25,1.94,3.78*0D
$GPGSV,5,1,18,02,55,355,24,04,43,173,36,05,54,285,30,06,48,061,15*71
$GPGSV,5,2,18,07,05,089,,09,21,044,10,12,21,262,23,13,25,189,29*76
$GPGSV,5,3,18,15,01,209,,17,27,151,26,19,44,151,33,20,08,253,17*7F
$GPGSV,5,4,18,25,08,297,,29,00,324,,30,06,120,,40,13,260,*78
$GPGSV,5,5,18,42,51,134,,50,51,134,*73
$GSENSORD,0.120,0.000,0.060
$GPRMC,022939.00,A,2505.07324,N,12131.41255,E,0.303,,241116,,,A*75
$GPVTG,,T,,M,0.303,N,0.561,K,A*21
$GPGGA,022939.00,2505.07324,N,12131.41255,E,1,08,1.94,71.9,M,16.9,M,,*6D
$GPGSA,A,3,19,17,06,02,05,12,13,20,,,,,4.25,1.94,3.78*0D
$GPGSV,5,1,18,02,55,355,24,04,43,173,36,05,54,285,29,06,48,061,15*79
$GPGSV,5,2,18,07,05,089,,09,21,044,09,12,21,262,23,13,25,189,29*7E
$GPGSV,5,3,18,15,01,209,,17,26,151,26,19,44,151,33,20,08,253,16*7F
$GPGSV,5,4,18,25,08,297,,29,00,324,,30,06,120,,40,13,260,*78
$GPGSV,5,5,18,42,51,134,,50,51,134,*73
$GSENSORD,0.120,0.000,0.060
$GPRMC,022940.00,A,2505.07292,N,12131.41264,E,0.331,,241116,,,A*74
$GPVTG,,T,,M,0.331,N,0.612,K,A*27
$GPGGA,022940.00,2505.07292,N,12131.41264,E,1,08,1.94,73.7,M,16.9,M,,*61
$GPGSA,A,3,19,17,06,02,05,12,13,20,,,,,4.25,1.94,3.78*0D
$GPGSV,5,1,18,02,55,355,25,04,43,173,36,05,54,285,29,06,48,061,15*78
$GPGSV,5,2,18,07,05,089,,09,21,044,08,12,21,262,25,13,25,189,30*71
$GPGSV,5,3,18,15,01,209,,17,26,151,26,19,44,151,33,20,08,253,15*7C
$GPGSV,5,4,18,25,08,297,,29,00,324,,30,06,120,,40,13,260,*78
$GPGSV,5,5,18,42,51,134,,50,51,134,*73
$GSENSORD,0.120,0.000,0.060
$GPRMC,022941.00,A,2505.07262,N,12131.41280,E,0.386,,241116,,,A*7C
$GPVTG,,T,,M,0.386,N,0.714,K,A*2C
$GPGGA,022941.00,2505.07262,N,12131.41280,E,1,08,1.94,75.5,M,16.9,M,,*61
$GPGSA,A,3,19,17,06,02,05,12,13,20,,,,,4.25,1.94,3.78*0D
$GPGSV,5,1,18,02,55,355,25,04,43,173,36,05,54,285,28,06,48,061,12*7E
$GPGSV,5,2,18,07,05,089,,09,21,044,08,12,21,262,25,13,25,189,30*71
$GPGSV,5,3,18,15,01,209,,17,26,151,26,19,43,151,33,20,08,253,12*7C
$GPGSV,5,4,18,25,08,297,,29,00,324,,30,06,120,,40,13,260,*78
$GPGSV,5,5,18,42,51,134,,50,51,134,*73
$GSENSORD,0.120,0.000,0.060
$GPRMC,022942.00,A,2505.07235,N,12131.41298,E,0.407,,241116,,,A*7A
$GPVTG,,T,,M,0.407,N,0.754,K,A*26
$GPGGA,022942.00,2505.07235,N,12131.41298,E,1,08,1.94,77.2,M,16.9,M,,*6C
$GPGSA,A,3,19,17,06,02,05,12,13,20,,,,,4.25,1.94,3.78*0D
$GPGSV,5,1,18,02,55,355,25,04,43,173,36,05,54,285,29,06,48,061,11*7C
$GPGSV,5,2,18,07,05,089,,09,21,044,08,12,21,262,26,13,25,189,31*73
$GPGSV,5,3,18,15,01,209,,17,26,151,26,19,43,151,34,20,08,253,10*79
$GPGSV,5,4,18,25,08,297,,29,00,324,,30,06,120,,40,13,260,*78
$GPGSV,5,5,18,42,51,134,,50,51,134,*73
$GSENSORD,0.000,0.000,0.000
$GPRMC,022943.00,A,2505.07206,N,12131.41313,E,0.334,,241116,,,A*7E
$GPVTG,,T,,M,0.334,N,0.618,K,A*28
$GPGGA,022943.00,2505.07206,N,12131.41313,E,1,08,1.94,78.9,M,16.9,M,,*6B
$GPGSA,A,3,19,17,06,02,05,12,13,20,,,,,4.25,1.94,3.78*0D
$GPGSV,5,1,18,02,55,355,25,04,43,173,36,05,54,285,29,06,48,061,10*7D
$GPGSV,5,2,18,07,05,089,,09,21,044,08,12,21,262,26,13,25,189,31*73
$GPGSV,5,3,18,15,01,209,,17,26,151,25,19,43,151,33,20,08,253,10*7D
$GPGSV,5,4,18,25,08,297,,29,00,324,,30,06,120,,40,13,260,*78
$GPGSV,5,5,18,42,51,134,,50,51,134,*73
$GSENSORD,0.120,0.000,0.060
$GPRMC,022944.00,A,2505.07175,N,12131.41322,E,0.311,,241116,,,A*7B
$GPVTG,,T,,M,0.311,N,0.575,K,A*27
$GPGGA,022944.00,2505.07175,N,12131.41322,E,1,07,1.94,80.6,M,16.9,M,,*6E
$GPGSA,A,3,19,17,02,05,12,13,20,,,,,,4.25,1.94,3.78*0B
$GPGSV,5,1,18,02,55,355,27,04,43,173,35,05,54,285,28,06,48,061,09*75
$GPGSV,5,2,18,07,05,089,,09,21,044,08,12,21,262,26,13,25,189,31*73
$GPGSV,5,3,18,15,01,209,,17,26,151,24,19,43,151,33,20,08,253,10*7C
$GPGSV,5,4,18,25,08,297,,29,00,324,,30,06,120,,40,13,260,*78
$GPGSV,5,5,18,42,51,134,,50,51,134,*73
$GSENSORD,0.120,0.000,0.060
$GPRMC,022945.00,A,2505.07148,N,12131.41333,E,0.371,,241116,,,A*72
$GPVTG,,T,,M,0.371,N,0.686,K,A*2E
$GPGGA,022945.00,2505.07148,N,12131.41333,E,1,07,1.94,82.4,M,16.9,M,,*61
$GPGSA,A,3,19,17,02,05,12,13,20,,,,,,4.25,1.94,3.78*0B
$GPGSV,5,1,18,02,55,355,26,04,43,173,36,05,54,285,28,06,48,061,08*76
$GPGSV,5,2,18,07,05,089,,09,21,044,,12,21,262,27,13,25,189,31*7A
$GPGSV,5,3,18,15,01,209,,17,26,151,23,19,43,151,34,20,08,253,11*7D
$GPGSV,5,4,18,25,08,297,,29,00,324,,30,06,120,,40,13,260,*78
$GPGSV,5,5,18,42,51,134,,50,51,134,*73
$GSENSORD,0.120,0.000,0.060
$GPRMC,022946.00,A,2505.07123,N,12131.41349,E,0.423,,241116,,,A*71
$GPVTG,,T,,M,0.423,N,0.783,K,A*2A
$GPGGA,022946.00,2505.07123,N,12131.41349,E,1,07,1.94,84.1,M,16.9,M,,*61
$GPGSA,A,3,19,17,02,05,12,13,20,,,,,,4.25,1.94,3.78*0B
$GPGSV,5,1,18,02,55,355,26,04,43,173,36,05,54,285,29,06,48,061,08*77
$GPGSV,5,2,18,07,05,089,,09,21,044,,12,21,262,27,13,25,189,31*7A
$GPGSV,5,3,18,15,01,209,,17,26,151,23,19,43,151,34,20,08,253,11*7D
$GPGSV,5,4,18,25,08,297,,29,00,324,,30,06,120,,40,13,260,*78
$GPGSV,5,5,18,42,51,134,,50,51,134,*73
$GSENSORD,0.120,0.000,0.060
$GPRMC,022947.00,A,2505.07091,N,12131.41360,E,0.568,,241116,,,A*7D
$GPVTG,,T,,M,0.568,N,1.052,K,A*2E
$GPGGA,022947.00,2505.07091,N,12131.41360,E,1,07,1.94,86.0,M,16.9,M,,*60
$GPGSA,A,3,19,17,02,05,12,13,20,,,,,,4.25,1.94,3.78*0B
$GPGSV,5,1,18,02,55,355,26,04,43,173,36,05,54,285,30,06,48,061,08*7F
$GPGSV,5,2,18,07,05,089,,09,21,044,,12,21,262,27,13,25,189,31*7A
$GPGSV,5,3,18,15,01,209,,17,26,151,24,19,43,151,34,20,08,253,11*7A
$GPGSV,5,4,18,25,08,297,,29,00,324,,30,06,120,,40,13,260,*78
$GPGSV,5,5,18,42,51,134,,50,51,134,*73
$GSENSORD,0.000,0.000,0.000
$GPRMC,022948.00,A,2505.07047,N,12131.41373,E,0.419,,241116,,,A*7C
$GPVTG,,T,,M,0.419,N,0.775,K,A*2A
$GPGGA,022948.00,2505.07047,N,12131.41373,E,1,07,1.94,88.1,M,16.9,M,,*69
$GPGSA,A,3,19,17,02,05,12,13,20,,,,,,4.25,1.94,3.78*0B
$GPGSV,5,1,18,02,55,355,25,04,43,173,35,05,54,285,30,06,48,061,08*7F
$GPGSV,5,2,18,07,05,089,,09,21,044,,12,21,262,28,13,25,189,35*71
$GPGSV,5,3,18,15,01,209,,17,26,151,24,19,43,151,33,20,08,253,11*7D
$GPGSV,5,4,18,25,08,297,,29,00,324,,30,06,120,,40,13,260,*78
$GPGSV,5,5,18,42,51,134,,50,51,134,*73
$GSENSORD,0.120,0.000,0.060
$GPRMC,022949.00,A,2505.07013,N,12131.41389,E,0.370,,241116,,,A*71
$GPVTG,,T,,M,0.370,N,0.685,K,A*2C
$GPGGA,022949.00,2505.07013,N,12131.41389,E,1,07,1.94,90.0,M,16.9,M,,*64
$GPGSA,A,3,19,17,02,05,12,13,20,,,,,,4.25,1.94,3.78*0B
$GPGSV,5,1,18,02,55,355,25,04,43,173,36,05,54,285,29,06,48,061,08*74
$GPGSV,5,2,18,07,05,089,,09,21,044,,12,21,262,28,13,25,189,33*77
$GPGSV,5,3,18,15,01,209,,17,26,151,24,19,43,151,33,20,08,253,11*7D
$GPGSV,5,4,18,25,08,297,,29,00,324,,30,06,120,,40,13,260,*78
$GPGSV,5,5,18,42,51,134,,50,51,134,*73
$GSENSORD,0.120,0.000,0.060
$GPRMC,022950.00,A,2505.06976,N,12131.41403,E,0.478,,241116,,,A*78
$GPVTG,,T,,M,0.478,N,0.885,K,A*2D
$GPGGA,022950.00,2505.06976,N,12131.41403,E,1,06,1.94,92.2,M,16.9,M,,*63
$GPGSA,A,3,19,17,02,05,12,13,,,,,,,4.25,1.94,3.78*09
$GPGSV,5,1,18,02,55,355,25,04,43,173,36,05,54,285,29,06,48,061,*7C
$GPGSV,5,2,18,07,05,089,,09,21,044,,12,21,262,29,13,25,189,33*76
$GPGSV,5,3,18,15,01,209,,17,26,151,23,19,43,151,33,20,08,253,*7A
$GPGSV,5,4,18,25,08,297,,29,00,324,,30,06,120,,40,13,260,*78
$GPGSV,5,5,18,42,51,134,,50,51,134,*73
$GSENSORD,0.120,0.000,0.060
$GPRMC,022951.00,A,2505.06939,N,12131.41419,E,0.441,,241116,,,A*73
$GPVTG,,T,,M,0.441,N,0.817,K,A*2C
$GPGGA,022951.00,2505.06939,N,12131.41419,E,1,06,1.94,94.6,M,16.9,M,,*60
$GPGSA,A,3,19,17,02,05,12,13,,,,,,,4.25,1.94,3.78*09
$GPGSV,5,1,18,02,55,355,26,04,43,173,38,05,54,285,31,06,48,061,*78
$GPGSV,5,2,18,07,05,089,,09,21,044,,12,21,262,30,13,25,189,32*7F
$GPGSV,5,3,18,15,01,209,,17,26,151,24,19,43,151,34,20,08,253,*7A
$GPGSV,5,4,18,25,08,297,,29,01,324,,30,06,120,,40,13,260,*79
$GPGSV,5,5,18,42,51,134,,50,51,134,*73
$GSENSORD,0.120,0.000,0.060
$GPRMC,022952.00,A,2505.06899,N,12131.41432,E,0.474,,241116,,,A*74
$GPVTG,,T,,M,0.474,N,0.877,K,A*2C
$GPGGA,022952.00,2505.06899,N,12131.41432,E,1,06,1.94,97.0,M,16.9,M,,*64
$GPGSA,A,3,19,17,02,05,12,13,,,,,,,4.25,1.94,3.78*09
$GPGSV,5,1,18,02,55,355,26,04,43,173,36,05,54,285,29,06,48,061,*7F
$GPGSV,5,2,18,07,05,089,,09,21,044,,12,21,262,29,13,25,189,30*75
$GPGSV,5,3,18,15,01,209,,17,26,151,24,19,43,151,33,20,08,253,*7D
$GPGSV,5,4,18,25,08,297,,29,01,324,,30,06,120,,40,13,260,*79
$GPGSV,5,5,18,42,51,134,,50,51,134,*73
$GSENSORD,0.000,0.000,0.000
$GPRMC,022953.00,A,2505.06892,N,12131.41425,E,0.142,,241116,,,A*78
$GPVTG,,T,,M,0.142,N,0.264,K,A*24
$GPGGA,022953.00,2505.06892,N,12131.41425,E,1,06,1.94,97.5,M,16.9,M,,*6D
$GPGSA,A,3,19,17,02,05,12,13,,,,,,,4.25,1.94,3.78*09
$GPGSV,5,1,18,02,55,355,24,04,43,173,36,05,54,285,32,06,48,061,*77
$GPGSV,5,2,18,07,05,089,,09,21,044,,12,21,262,17,13,25,189,30*78
$GPGSV,5,3,18,15,01,209,,17,26,151,23,19,43,151,33,20,08,253,*7A
$GPGSV,5,4,18,25,08,297,,29,01,324,,30,06,120,,40,13,260,*79
$GPGSV,5,5,18,42,51,134,,50,51,134,*73
$GSENSORD,0.120,0.000,0.060
$GPRMC,022954.00,A,2505.06875,N,12131.41412,E,0.304,,241116,,,A*72
$GPVTG,,T,,M,0.304,N,0.562,K,A*25
$GPGGA,022954.00,2505.06875,N,12131.41412,E,1,06,1.94,98.6,M,16.9,M,,*6B
$GPGSA,A,3,19,17,02,05,12,13,,,,,,,4.25,1.94,3.78*09
$GPGSV,5,1,18,02,55,355,25,04,43,173,37,05,54,285,31,06,48,061,*74
$GPGSV,5,2,18,07,05,089,,09,21,044,,12,21,262,20,13,25,189,30*7C
$GPGSV,5,3,18,15,01,209,,17,26,151,24,19,43,151,33,20,08,253,*7D
$GPGSV,5,4,18,25,08,297,,29,01,324,,30,06,120,,40,13,260,*79
$GPGSV,5,5,18,42,51,134,,50,51,134,*73
$GSENSORD,0.120,0.000,0.060
$GPRMC,022955.00,A,2505.06857,N,12131.41406,E,0.518,,241116,,,A*7D
$GPVTG,,T,,M,0.518,N,0.960,K,A*20
$GPGGA,022955.00,2505.06857,N,12131.41406,E,1,06,1.94,99.9,M,16.9,M,,*61
$GPGSA,A,3,19,17,02,05,12,13,,,,,,,4.25,1.94,3.78*09
$GPGSV,5,1,18,02,55,355,26,04,43,173,37,05,54,285,31,06,48,061,*77
$GPGSV,5,2,18,07,05,089,,09,21,044,,12,21,262,23,13,25,189,29*77
$GPGSV,5,3,18,15,01,209,,17,26,151,25,19,43,151,34,20,08,253,*7B
$GPGSV,5,4,18,25,08,297,,29,01,324,,30,06,120,,40,13,260,*79
$GPGSV,5,5,18,42,51,134,,50,51,134,*73
$GSENSORD,0.180,0.000,0.060
$GPRMC,022956.00,A,2505.06824,N,12131.41402,E,0.718,,241116,,,A*7C
$GPVTG,,T,,M,0.718,N,1.330,K,A*2C
$GPGGA,022956.00,2505.06824,N,12131.41402,E,1,06,1.94,101.1,M,16.9,M,,*5A
$GPGSA,A,3,19,17,02,05,12,13,,,,,,,4.25,1.94,3.78*09
$GPGSV,5,1,18,02,55,355,27,04,43,173,35,05,54,285,30,06,48,061,*75
$GPGSV,5,2,18,07,05,089,,09,21,044,,12,21,262,23,13,25,189,33*7C
$GPGSV,5,3,18,15,01,209,,17,26,151,25,19,43,151,34,20,08,253,*7B
$GPGSV,5,4,18,25,08,297,,29,01,324,,30,06,120,,40,13,260,*79
$GPGSV,5,5,18,42,51,134,,50,51,134,*73
$GSENSORD,0.180,0.000,0.060
$GPRMC,022957.00,A,2505.06790,N,12131.41406,E,1.463,178.65,241116,,,A*64
$GPVTG,178.65,T,,M,1.463,N,2.709,K,A*3C
$GPGGA,022957.00,2505.06790,N,12131.41406,E,1,06,1.94,102.0,M,16.9,M,,*5D
$GPGSA,A,3,19,17,02,05,12,13,,,,,,,4.25,1.94,3.78*09
$GPGSV,5,1,18,02,55,355,32,04,43,173,38,05,54,285,28,06,48,061,*75
$GPGSV,5,2,18,07,05,089,,09,21,044,17,12,21,262,23,13,25,189,30*79
$GPGSV,5,3,18,15,01,209,,17,26,151,21,19,43,151,37,20,08,253,*7C
$GPGSV,5,4,18,25,08,297,,29,01,324,,30,06,120,,40,13,260,*79
$GPGSV,5,5,18,42,51,134,,50,51,134,*73
$GSENSORD,0.000,0.000,0.120
$GPRMC,022958.00,A,2505.06721,N,12131.41403,E,2.669,179.73,241116,,,A*69
$GPVTG,179.73,T,,M,2.669,N,4.943,K,A*37
$GPGGA,022958.00,2505.06721,N,12131.41403,E,1,06,1.94,102.9,M,16.9,M,,*54
$GPGSA,A,3,19,17,02,05,12,13,,,,,,,4.25,1.94,3.78*09
$GPGSV,5,1,18,02,55,355,31,04,43,173,39,05,54,285,28,06,48,061,05*72
$GPGSV,5,2,18,07,05,089,,09,21,044,15,12,21,262,23,13,25,189,31*7A
$GPGSV,5,3,18,15,01,209,,17,26,151,19,19,43,151,39,20,08,253,10*78
$GPGSV,5,4,18,25,08,297,,29,01,324,,30,06,120,,40,13,260,*79
$GPGSV,5,5,18,42,51,134,,50,51,134,*73
$GSENSORD,0.120,0.000,0.060
$GPRMC,022959.00,A,2505.06643,N,12131.41415,E,3.086,177.47,241116,,,A*65
$GPVTG,177.47,T,,M,3.086,N,5.715,K,A*34
$GPGGA,022959.00,2505.06643,N,12131.41415,E,1,06,1.94,103.4,M,16.9,M,,*5B
$GPGSA,A,3,19,17,02,05,12,13,,,,,,,4.25,1.94,3.78*09
$GPGSV,5,1,18,02,55,355,30,04,43,173,39,05,54,285,27,06,48,061,08*71
$GPGSV,5,2,18,07,05,089,,09,21,044,15,12,21,262,23,13,25,189,31*7A
$GPGSV,5,3,18,15,01,209,,17,26,151,16,19,43,151,38,20,08,253,15*73
$GPGSV,5,4,18,25,08,297,,29,01,324,,30,06,120,,40,13,260,*79
$GPGSV,5,5,18,42,51,134,,50,51,134,30*70
$GSENSORD,0.120,0.000,0.060
$GPRMC,023000.00,A,2505.06564,N,12131.41419,E,3.146,176.46,241116,,,A*66
$GPVTG,176.46,T,,M,3.146,N,5.826,K,A*36
$GPGGA,023000.00,2505.06564,N,12131.41419,E,1,06,1.94,103.5,M,16.9,M,,*54
$GPGSA,A,3,19,17,02,05,12,13,,,,,,,4.25,1.94,3.78*09
$GPGSV,5,1,18,02,55,355,25,04,43,173,38,05,54,285,27,06,48,061,13*7E
$GPGSV,5,2,18,07,05,089,,09,21,044,,12,21,262,24,13,25,189,30*78
$GPGSV,5,3,18,15,01,209,,17,26,151,16,19,43,151,38,20,08,253,15*73
$GPGSV,5,4,18,25,08,297,,29,01,324,,30,06,120,,40,13,260,*79
$GPGSV,5,5,18,42,51,134,,50,51,134,29*78
$GSENSORD,0.250,0.000,0.120
$GPRMC,023001.00,A,2505.06475,N,12131.41422,E,3.622,176.42,241116,,,A*6F
$GPVTG,176.42,T,,M,3.622,N,6.709,K,A*36
$GPGGA,023001.00,2505.06475,N,12131.41422,E,1,07,1.44,103.6,M,16.9,M,,*53
$GPGSA,A,3,19,17,06,02,05,12,13,,,,,,3.49,1.44,3.17*06
$GPGSV,5,1,18,02,55,355,25,04,43,173,40,05,54,285,26,06,48,061,17*74
$GPGSV,5,2,18,07,05,089,,09,21,044,,12,21,262,25,13,25,189,30*79
$GPGSV,5,3,18,15,01,209,,17,26,151,14,19,43,151,35,20,08,253,15*7C
$GPGSV,5,4,18,25,08,297,,29,01,324,,30,06,120,,40,13,260,*79
$GPGSV,5,5,18,42,51,134,,50,51,134,28*79
$GSENSORD,0.000,0.000,0.000
$GPRMC,023002.00,A,2505.06345,N,12131.41437,E,4.765,174.46,241116,,,A*6F
$GPVTG,174.46,T,,M,4.765,N,8.824,K,A*3B
$GPGGA,023002.00,2505.06345,N,12131.41437,E,1,08,1.44,104.4,M,16.9,M,,*5A
$GPGSA,A,3,19,17,06,02,05,12,13,20,,,,,3.49,1.44,3.17*04
$GPGSV,5,1,18,02,55,355,24,04,43,173,38,05,54,285,25,06,48,061,19*77
$GPGSV,5,2,18,07,05,089,,09,21,044,14,12,21,262,24,13,25,189,22*7E
$GPGSV,5,3,18,15,01,209,,17,26,151,12,19,43,151,31,20,08,253,14*7F
$GPGSV,5,4,18,25,08,297,,29,01,324,,30,06,120,,40,13,260,*79
$GPGSV,5,5,18,42,51,134,,50,51,134,27*76
$GSENSORD,0.250,0.000,0.120
$GPRMC,023003.00,A,2505.06168,N,12131.41411,E,5.778,177.97,241116,,,A*65
$GPVTG,177.97,T,,M,5.778,N,10.701,K,A*08
$GPGGA,023003.00,2505.06168,N,12131.41411,E,1,08,1.44,104.9,M,16.9,M,,*5F
$GPGSA,A,3,19,17,06,02,05,12,13,20,,,,,3.49,1.44,3.17*04
$GPGSV,5,1,18,02,55,355,26,04,43,173,33,05,54,285,27,06,48,061,31*76
$GPGSV,5,2,18,07,05,089,,09,21,044,15,12,21,262,24,13,25,189,30*7C
$GPGSV,5,3,18,15,01,209,,17,26,151,13,19,43,151,25,20,08,253,14*7B
$GPGSV,5,4,18,25,08,297,,29,01,324,,30,06,120,,40,13,260,*79
$GPGSV,5,5,18,42,51,134,,50,51,134,27*76
$GSENSORD,0.310,0.000,0.120
$GPRMC,023004.00,A,2505.05938,N,12131.41433,E,7.658,175.78,241116,,,A*6E
$GPVTG,175.78,T,,M,7.658,N,14.183,K,A*02
$GPGGA,023004.00,2505.05938,N,12131.41433,E,1,08,1.44,104.9,M,16.9,M,,*56
$GPGSA,A,3,19,17,06,02,05,12,13,20,,,,,3.49,1.44,3.17*04
$GPGSV,5,1,18,02,55,355,25,04,43,173,39,05,54,285,32,06,48,061,24*7F
$GPGSV,5,2,18,07,05,089,,09,21,044,13,12,21,262,25,13,25,189,29*73
$GPGSV,5,3,18,15,01,209,,17,26,151,13,19,43,151,25,20,08,253,14*7B
$GPGSV,5,4,18,25,08,297,,29,01,324,,30,06,120,,40,13,260,*79
$GPGSV,5,5,18,42,51,134,,50,51,134,27*76
$GSENSORD,0.250,0.000,0.060
$GPRMC,023005.00,A,2505.05536,N,12131.41488,E,12.709,171.75,241116,,,A*55
$GPVTG,171.75,T,,M,12.709,N,23.536,K,A*34
$GPGGA,023005.00,2505.05536,N,12131.41488,E,1,08,1.45,104.6,M,16.9,M,,*5B
$GPGSA,A,3,19,17,06,02,05,12,13,20,,,,,3.49,1.45,3.17*05
$GPGSV,5,1,18,02,55,355,24,04,43,173,40,05,54,285,32,06,48,061,24*70
$GPGSV,5,2,18,07,05,089,,09,21,044,,12,21,262,26,13,25,189,30*7A
$GPGSV,5,3,18,15,01,209,,17,26,151,13,19,43,151,40,20,08,253,14*78
$GPGSV,5,4,18,25,08,297,,29,01,324,,30,06,120,,40,13,260,*79
$GPGSV,5,5,18,42,51,134,,50,51,134,28*79
$GSENSORD,0.000,0.120,0.120
$GPRMC,023006.00,A,2505.05109,N,12131.41506,E,14.903,172.58,241116,,,A*57
$GPVTG,172.58,T,,M,14.903,N,27.601,K,A*39
$GPGGA,023006.00,2505.05109,N,12131.41506,E,1,08,1.45,103.9,M,16.9,M,,*5F
$GPGSA,A,3,19,17,06,02,05,12,13,20,,,,,3.49,1.45,3.17*05
$GPGSV,5,1,18,02,55,355,23,04,43,173,38,05,54,285,30,06,48,061,30*7F
$GPGSV,5,2,18,07,05,089,,09,21,044,,12,21,262,23,13,25,189,35*7A
$GPGSV,5,3,18,15,01,209,,17,26,151,13,19,43,151,39,20,08,253,13*71
$GPGSV,5,4,18,25,08,297,,29,01,324,,30,06,120,,40,13,260,*79
$GPGSV,5,5,18,42,51,134,,50,51,134,29*78
$GSENSORD,0.120,0.120,0.250
$GPRMC,023007.00,A,2505.04712,N,12131.41536,E,14.465,173.23,241116,,,A*58
$GPVTG,173.23,T,,M,14.465,N,26.788,K,A*38
$GPGGA,023007.00,2505.04712,N,12131.41536,E,1,08,1.45,103.9,M,16.9,M,,*50
$GPGSA,A,3,19,17,06,02,05,12,13,20,,,,,3.49,1.45,3.17*05
$GPGSV,5,1,18,02,55,355,25,04,43,173,38,05,54,285,23,06,48,061,25*7F
$GPGSV,5,2,18,07,05,089,,09,21,044,,12,21,262,20,13,25,189,32*7E
$GPGSV,5,3,18,15,01,209,,17,26,151,13,19,43,151,39,20,08,253,13*71
$GPGSV,5,4,18,25,08,297,,29,01,324,,30,06,120,,40,13,260,*79
$GPGSV,5,5,18,42,51,134,,50,51,134,30*70
$GSENSORD,0.060,0.120,0.060
$GPRMC,023008.00,A,2505.04325,N,12131.41597,E,14.088,170.82,241116,,,A*53
$GPVTG,170.82,T,,M,14.088,N,26.090,K,A*39
$GPGGA,023008.00,2505.04325,N,12131.41597,E,1,08,1.45,104.3,M,16.9,M,,*59
$GPGSA,A,3,19,17,06,02,05,12,13,20,,,,,3.49,1.45,3.17*05
$GPGSV,5,1,18,02,55,355,28,04,43,173,33,05,54,285,24,06,48,061,23*78
$GPGSV,5,2,18,07,05,089,,09,21,044,,12,21,262,20,13,25,189,28*75
$GPGSV,5,3,18,15,01,209,,17,26,151,13,19,43,151,36,20,08,253,10*7D
$GPGSV,5,4,18,25,08,297,,29,01,324,,30,06,120,,40,13,260,*79
$GPGSV,5,5,18,42,51,134,,50,51,134,29*78
$GSENSORD,0.060,0.120,0.060
$GPRMC,023009.00,A,2505.03994,N,12131.41765,E,13.310,160.16,241116,,,A*53
$GPVTG,160.16,T,,M,13.310,N,24.650,K,A*38
$GPGGA,023009.00,2505.03994,N,12131.41765,E,1,08,1.45,103.1,M,16.9,M,,*55
$GPGSA,A,3,19,17,06,02,05,12,13,20,,,,,3.49,1.45,3.17*05
$GPGSV,5,1,18,02,55,355,20,04,43,173,38,05,54,285,32,06,48,061,30*7E
$GPGSV,5,2,18,07,05,089,,09,21,044,,12,21,262,29,13,25,189,35*70
$GPGSV,5,3,18,15,01,209,,17,26,151,07,19,43,151,33,20,08,253,10*7D
$GPGSV,5,4,18,25,08,297,,29,01,324,,30,06,120,,40,13,260,*79
$GPGSV,5,5,18,42,51,134,,50,51,134,29*78
$GSENSORD,0.120,0.000,0.120
$GPRMC,023010.00,A,2505.03776,N,12131.42001,E,12.172,143.17,241116,,,A*58
$GPVTG,143.17,T,,M,12.172,N,22.543,K,A*38
$GPGGA,023010.00,2505.03776,N,12131.42001,E,1,08,1.45,100.9,M,16.9,M,,*52
$GPGSA,A,3,19,17,06,02,05,12,13,20,,,,,3.49,1.45,3.17*05
$GPGSV,5,1,18,02,55,355,29,04,43,173,36,05,54,285,32,06,48,061,31*78
$GPGSV,5,2,18,07,05,089,,09,21,044,,12,21,262,30,13,25,189,31*7C
$GPGSV,5,3,18,15,01,209,,17,26,151,07,19,43,151,28,20,08,253,10*77
$GPGSV,5,4,18,25,08,297,,29,01,324,,30,06,120,,40,13,260,*79
$GPGSV,5,5,18,42,51,134,,50,51,134,27*76
$GSENSORD,0.120,0.120,0.060
$GPRMC,023011.00,A,2505.03598,N,12131.42235,E,11.224,131.15,241116,,,A*5A
$GPVTG,131.15,T,,M,11.224,N,20.786,K,A*35
$GPGGA,023011.00,2505.03598,N,12131.42235,E,1,08,1.45,98.3,M,16.9,M,,*6E
$GPGSA,A,3,19,17,06,02,05,12,13,20,,,,,3.49,1.45,3.17*05
$GPGSV,5,1,18,02,55,355,29,04,43,173,35,05,54,285,27,06,48,061,35*7B
$GPGSV,5,2,18,07,05,089,,09,21,044,,12,21,262,30,13,25,189,37*7A
$GPGSV,5,3,18,15,01,209,,17,26,151,07,19,43,151,25,20,08,253,10*7A
$GPGSV,5,4,18,25,08,297,,29,01,324,,30,06,120,,40,13,260,*79
$GPGSV,5,5,18,42,51,134,,50,51,134,*73
$GSENSORD,0.180,0.120,0.120
$GPRMC,023012.00,A,2505.03477,N,12131.42528,E,11.447,119.05,241116,,,A*5A
$GPVTG,119.05,T,,M,11.447,N,21.199,K,A*34
$GPGGA,023012.00,2505.03477,N,12131.42528,E,1,08,1.45,97.0,M,16.9,M,,*6A
$GPGSA,A,3,19,17,06,02,05,12,13,20,,,,,3.49,1.45,3.17*05
$GPGSV,5,1,18,02,55,355,32,04,43,173,33,05,54,285,15,06,48,061,32*71
$GPGSV,5,2,18,07,05,089,,09,21,044,,12,21,262,29,13,25,189,31*74
$GPGSV,5,3,18,15,01,209,,17,26,151,07,19,43,151,22,20,08,253,10*7D
$GPGSV,5,4,18,25,08,297,,29,01,324,,30,06,120,,40,13,260,*79
$GPGSV,5,5,18,42,51,134,,50,51,134,*73
$GSENSORD,0.000,0.000,0.000
$GPRMC,023013.00,A,2505.03411,N,12131.42885,E,11.777,112.16,241116,,,A*58
$GPVTG,112.16,T,,M,11.777,N,21.811,K,A*34
$GPGGA,023013.00,2505.03411,N,12131.42885,E,1,08,1.45,95.4,M,16.9,M,,*67
$GPGSA,A,3,19,17,06,02,05,12,13,20,,,,,3.49,1.45,3.17*05
$GPGSV,5,1,18,02,55,355,32,04,43,173,27,05,54,285,25,06,48,061,35*70
$GPGSV,5,2,18,07,05,089,,09,21,044,18,12,21,262,20,13,25,189,25*71
$GPGSV,5,3,18,15,01,209,,17,26,151,07,19,43,151,17,20,08,253,10*7B
$GPGSV,5,4,18,25,08,297,,29,01,324,,30,06,120,,40,13,260,*79
$GPGSV,5,5,18,42,51,134,,50,51,134,*73
$GSENSORD,0.250,0.120,0.120
$GPRMC,023014.00,A,2505.03394,N,12131.43302,E,13.023,99.23,241116,,,A*60
$GPGGA,023014.00,2505.03394,N,12131.43302,E,1,07,1.78,94.6,M,16.9,M,,*6D
$GPGSA,A,3,19,17,06,02,05,12,13,,,,,,4.89,1.78,4.55*03
$GPGSV,5,1,18,02,55,355,25,04,43,173,24,05,54,285,28,06,48,062,39*77
$GPGSV,5,2,18,07,05,089,,09,21,044,18,12,21,262,23,13,25,189,32*74
$GPGSV,5,3,18,15,01,209,,17,26,151,07,19,43,151,15,20,08,253,18*71
$GPGSV,5,4,18,25,08,297,,29,01,324,,30,06,120,,40,13,260,*79
$GPGSV,5,5,18,42,51,134,,50,51,134,*73
$GSENSORD,0.310,0.060,0.060
$GPRMC,023015.00,A,2505.03403,N,12131.43753,E,14.343,95.16,241116,,,A*60
$GPVTG,95.16,T,,M,14.343,N,26.563,K,A*03
$GPGGA,023015.00,2505.03403,N,12131.43753,E,1,07,1.45,93.3,M,16.9,M,,*69
$GPGSA,A,3,19,17,06,02,05,12,13,,,,,,3.49,1.45,3.17*07
$GPGSV,5,1,18,02,55,355,25,04,43,173,20,05,54,285,25,06,48,062,39*7E
$GPGSV,5,2,18,07,05,089,,09,21,044,18,12,21,262,25,13,25,189,17*75
$GPGSV,5,3,18,15,01,209,,17,26,151,16,19,43,151,13,20,08,253,17*78
$GPGSV,5,4,18,25,08,297,,29,01,324,,30,06,120,,40,13,260,*79
$GPGSV,5,5,18,42,51,134,,50,51,134,*73
$GSENSORD,0.250,0.060,0.060
$GPRMC,023016.00,A,2505.03432,N,12131.44271,E,16.645,88.96,241116,,,A*66
$GPVTG,88.96,T,,M,16.645,N,30.826,K,A*0D
$GPGGA,023016.00,2505.03432,N,12131.44271,E,1,08,1.45,93.0,M,16.9,M,,*66
$GPGSA,A,3,19,17,06,02,09,05,12,13,,,,,3.49,1.45,3.17*0E
$GPGSV,5,1,18,02,55,355,25,04,43,173,12,05,54,285,24,06,48,062,41*71
$GPGSV,5,2,18,07,05,089,,09,21,044,30,12,21,262,27,13,25,189,14*7E
$GPGSV,5,3,18,15,01,209,,17,26,151,16,19,43,151,13,20,08,253,14*7B
$GPGSV,5,4,18,25,08,297,,29,01,324,,30,06,120,,40,13,260,*79
$GPGSV,5,5,18,42,51,134,,50,51,134,*73
$GSENSORD,0.000,0.000,0.120
$GPRMC,023017.00,A,2505.03611,N,12131.44872,E,17.967,85.27,241116,,,A*64
$GPVTG,85.27,T,,M,17.967,N,33.276,K,A*08
$GPGGA,023017.00,2505.03611,N,12131.44872,E,1,08,1.02,86.7,M,16.9,M,,*6D
$GPGSA,A,3,19,17,06,02,09,05,12,13,,,,,2.08,1.02,1.82*07
$GPGSV,5,1,18,02,55,355,24,04,43,173,12,05,54,285,24,06,48,062,39*7F
$GPGSV,5,2,18,07,05,089,,09,21,044,31,12,21,262,28,13,25,189,14*70
$GPGSV,5,3,18,15,01,209,,17,26,151,16,19,43,151,14,20,08,253,11*79
$GPGSV,5,4,18,25,08,297,,29,01,324,,30,06,120,,40,13,260,*79
$GPGSV,5,5,18,42,51,134,,50,51,134,*73
$GSENSORD,0.250,0.000,0.060
$GPRMC,023018.00,A,2505.03723,N,12131.45484,E,19.506,84.56,241116,,,A*6D
$GPVTG,84.56,T,,M,19.506,N,36.125,K,A*0A
$GPGGA,023018.00,2505.03723,N,12131.45484,E,1,08,0.93,83.5,M,16.9,M,,*68
$GPGSA,A,3,19,17,06,02,09,05,12,13,,,,,1.97,0.93,1.73*05
$GPGSV,5,1,18,02,55,355,22,04,43,173,33,05,54,285,24,06,48,062,40*74
