$GSENSORD,0.060,0.000,0.000
$GPRMC,074159.00,A,2502.68354,N,12132.21791,E,21.061,89.25,241116,,,A*65
$GPVTG,89.25,T,,M,21.061,N,39.004,K,A*01
$GPGGA,074159.00,2502.68354,N,12132.21791,E,1,05,1.82,16.2,M,17.0,M,,*69
$GPGSA,A,3,05,15,20,24,21,,,,,,,,2.70,1.82,2.00*08
$GPGSV,4,1,15,05,12,117,12,10,13,315,,12,16,148,13,13,15,052,*74
$GPGSV,4,2,15,15,42,036,25,18,43,327,17,20,61,090,24,21,55,266,21*7D
$GPGSV,4,3,15,24,81,077,28,25,02,182,,29,03,203,,32,08,266,08*7B
$GPGSV,4,4,15,40,13,260,,42,51,134,,50,51,134,*4C
$GSENSORD,0.000,0.060,0.000
$GPRMC,074200.00,A,2502.68230,N,12132.22378,E,20.787,90.10,241116,,,A*69
$GPVTG,90.10,T,,M,20.787,N,38.497,K,A*0E
$GPGGA,074200.00,2502.68230,N,12132.22378,E,1,05,1.82,18.1,M,17.0,M,,*68
$GPSDC
$GPGSA,A,3,05,15,20,24,21,,,,,,,,2.70,1.82,2.00*08
$GPGSV,4,1,15,05,12,117,11,10,13,315,,12,16,148,10,13,15,052,18*7D
$GPGSV,4,2,15,15,42,036,31,18,43,327,17,20,61,090,24,21,55,266,20*79
$GPGSV,4,3,15,24,81,077,28,25,02,182,,29,03,203,,32,08,266,08*7B
$GPGSV,4,4,15,40,13,260,,42,51,134,,50,51,134,*4C
$GSENSORD,0.000,0.060,0.000
$GPRMC,074201.00,A,2502.68208,N,12132.23201,E,21.592,88.29,241116,,,A*69
$GPVTG,88.29,T,,M,21.592,N,39.989,K,A*09
$GPGGA,074201.00,2502.68208,N,12132.23201,E,1,05,3.05,18.6,M,17.0,M,,*66
$GPSDC
$GPGSA,A,3,15,20,24,21,18,,,,,,,,7.85,3.05,7.23*02
$GPGSV,4,1,15,05,12,117,09,10,13,315,,12,16,148,10,13,15,052,21*7E
$GPGSV,4,2,15,15,42,036,24,18,43,327,20,20,61,090,25,21,55,266,20*78
$GPGSV,4,3,15,24,81,077,29,25,02,182,,29,03,203,,32,08,266,*72
$GPGSV,4,4,15,40,13,260,,42,51,134,,50,51,134,*4C
$GSENSORD,0.060,0.000,0.060
$GPRMC,074202.00,A,2502.68302,N,12132.23997,E,22.360,85.90,241116,,,A*62
$GPVTG,85.90,T,,M,22.360,N,41.411,K,A*0D
$GPGGA,074202.00,2502.68302,N,12132.23997,E,1,06,2.91,18.7,M,17.0,M,,*64
$GPSDC
$GPGSA,A,3,13,15,20,24,21,18,,,,,,,4.10,2.91,2.89*06
$GPGSV,4,1,15,05,12,117,09,10,13,315,,12,16,148,11,13,15,052,29*77
$GPGSV,4,2,15,15,42,036,31,18,43,327,21,20,61,090,25,21,55,266,19*77
$GPGSV,4,3,15,24,81,077,29,25,02,182,,29,03,203,,32,08,266,*72
$GPGSV,4,4,15,40,13,260,,42,51,134,,50,51,134,*4C
$GSENSORD,0.000,0.000,0.000
$GPRMC,074203.00,A,2502.68226,N,12132.24794,E,22.548,89.21,241116,,,A*64
$GPVTG,89.21,T,,M,22.548,N,41.759,K,A*08
$GPGGA,074203.00,2502.68226,N,12132.24794,E,1,06,1.56,18.0,M,17.0,M,,*67
$GPSDC
$GPGSA,A,3,05,13,15,20,24,21,,,,,,,2.27,1.56,1.65*01
$GPGSV,4,1,15,05,12,117,12,10,13,315,,12,16,148,12,13,15,052,30*76
$GPGSV,4,2,15,15,42,036,25,18,43,327,,20,61,091,24,21,55,266,21*7A
$GPGSV,4,3,15,24,81,077,27,25,02,182,,29,03,203,,32,08,266,*7C
$GPGSV,4,4,15,40,13,260,,42,51,134,,50,51,134,*4C
$GSENSORD,0.060,0.060,0.060
$GPRMC,074204.00,A,2502.68501,N,12132.25460,E,21.840,83.74,241116,,,A*64
$GPVTG,83.74,T,,M,21.840,N,40.448,K,A*06
$GPGGA,074204.00,2502.68501,N,12132.25460,E,1,07,1.38,19.8,M,17.0,M,,*6B
$GPSDC
$GPGSA,A,3,05,13,15,12,20,24,21,,,,,,2.07,1.38,1.53*0D
$GPGSV,4,1,15,05,12,117,15,10,13,315,,12,16,148,12,13,15,052,26*76
$GPGSV,4,2,15,15,42,036,26,18,43,327,21,20,61,091,22,21,54,265,22*7D
$GPGSV,4,3,15,24,81,077,26,25,02,182,,29,03,203,,32,08,266,*7D
$GPGSV,4,4,15,40,13,260,,42,51,134,,50,51,134,*4C
$GSENSORD,0.060,0.060,0.000
$GPRMC,074205.00,A,2502.68484,N,12132.26237,E,22.107,87.33,241116,,,A*60
$GPVTG,87.33,T,,M,22.107,N,40.943,K,A*0E
$GPGGA,074205.00,2502.68484,N,12132.26237,E,1,07,1.38,19.2,M,17.0,M,,*6B
$GPSDC
$GPGSA,A,3,05,13,15,12,20,24,21,,,,,,2.07,1.38,1.53*0D
$GPGSV,4,1,15,05,12,117,17,10,13,315,,12,16,148,15,13,15,052,31*75
$GPGSV,4,2,15,15,42,036,25,18,43,327,22,20,61,091,22,21,54,265,21*7E
$GPGSV,4,3,15,24,81,077,24,25,02,182,,29,03,203,,32,08,266,*7F
$GPGSV,4,4,15,40,13,260,,42,51,134,,50,51,134,*4C
$GSENSORD,0.000,0.060,-0.060
$GPRMC,074206.00,A,2502.68441,N,12132.26922,E,22.003,88.21,241116,,,A*6C
$GPVTG,88.21,T,,M,22.003,N,40.750,K,A*0B
$GPGGA,074206.00,2502.68441,N,12132.26922,E,1,08,1.38,18.3,M,17.0,M,,*61
$GPSDC
$GPGSA,A,3,05,13,15,12,20,24,21,18,,,,,2.07,1.38,1.53*04
$GPGSV,4,1,15,05,12,117,19,10,13,315,,12,16,148,30,13,15,052,24*78
$GPGSV,4,2,15,15,42,036,25,18,43,327,21,20,61,091,21,21,54,265,18*74
$GPGSV,4,3,15,24,81,077,23,25,02,182,,29,03,203,,32,08,266,*78
$GPGSV,4,4,15,40,13,260,,42,51,134,,50,51,134,*4C
$GSENSORD,0.060,0.060,-0.060
$GPRMC,074207.00,A,2502.68394,N,12132.27682,E,22.242,89.52,241116,,,A*64
$GPGGA,074207.00,2502.68394,N,12132.27682,E,1,07,1.48,18.3,M,17.0,M,,*63
$GPSDC
$GPGSA,A,3,05,13,15,12,20,24,21,,,,,,2.13,1.48,1.53*0F
$GPGSV,4,1,15,05,12,117,28,10,13,315,,12,16,148,20,13,15,052,24*7B
$GPGSV,4,2,15,15,42,036,23,18,43,327,,20,61,091,20,21,54,265,17*7F
$GPGSV,4,3,15,24,81,074,21,25,02,182,,29,03,203,,32,08,266,*79
$GPGSV,4,4,15,40,13,260,,42,51,134,,50,51,134,*4C
$GSENSORD,0.000,0.060,0.000
$GPRMC,074208.00,A,2502.68321,N,12132.28253,E,20.886,91.30,241116,,,A*6F
$GPVTG,91.30,T,,M,20.886,N,38.680,K,A*07
$GPGGA,074208.00,2502.68321,N,12132.28253,E,1,06,1.48,17.2,M,17.0,M,,*6A
$GPSDC
$GPGSA,A,3,05,13,12,20,24,21,,,,,,,2.13,1.48,1.53*0B
$GPGSV,4,1,15,05,12,117,26,10,13,315,,12,16,148,18,13,15,052,23*79
$GPGSV,4,2,15,15,42,036,,18,43,327,27,20,61,091,19,21,54,265,17*71
$GPGSV,4,3,15,24,81,074,20,25,02,182,,29,03,203,,32,08,266,*78
$GPGSV,4,4,15,40,13,260,,42,51,134,,50,51,134,*4C
$GSENSORD,0.000,0.000,-0.060
$GPRMC,074209.00,A,2502.68250,N,12132.28823,E,19.575,91.69,241116,,,A*63
$GPVTG,91.69,T,,M,19.575,N,36.253,K,A*04
$GPGGA,074209.00,2502.68250,N,12132.28823,E,1,07,1.24,17.4,M,17.0,M,,*6C
$GPSDC
$GPGSA,A,3,05,13,12,20,24,21,18,,,,,,1.87,1.24,1.40*04
$GPGSV,4,1,15,05,12,117,24,10,13,315,,12,16,148,16,13,15,052,22*74
$GPGSV,4,2,15,15,42,036,28,18,43,327,25,20,61,091,18,21,54,265,19*76
$GPGSV,4,3,15,24,81,074,19,25,02,182,,29,03,203,,32,08,266,*72
$GPGSV,4,4,15,40,13,260,,42,51,134,,50,51,134,*4C
$GSENSORD,0.060,0.060,-0.120
$GPRMC,074210.00,A,2502.68056,N,12132.29374,E,18.459,93.92,241116,,,A*6F
$GPVTG,93.92,T,,M,18.459,N,34.186,K,A*05
$GPGGA,074210.00,2502.68056,N,12132.29374,E,1,08,1.35,17.7,M,17.0,M,,*64
$GPSDC
$GPGSA,A,3,05,13,15,12,20,24,21,18,,,,,2.05,1.35,1.55*0D
$GPGSV,4,1,15,05,12,117,29,10,13,315,19,12,16,148,16,13,15,052,20*73
$GPGSV,4,2,15,15,42,036,38,18,43,327,24,20,61,091,17,21,54,265,20*73
$GPGSV,4,3,15,24,81,074,19,25,02,182,,29,03,203,,32,08,266,*72
$GPGSV,4,4,15,40,13,260,,42,51,134,,50,51,134,*4C
$GSENSORD,0.060,0.000,0.000
$GPRMC,074211.00,A,2502.67930,N,12132.29911,E,17.655,93.62,241116,,,A*6F
$GPVTG,93.62,T,,M,17.655,N,32.696,K,A*0B
$GPGGA,074211.00,2502.67930,N,12132.29911,E,1,07,1.35,17.4,M,17.0,M,,*66
$GPSDC
$GPGSA,A,3,05,13,15,20,24,21,18,,,,,,2.05,1.35,1.55*0E
$GPGSV,4,1,15,05,12,117,29,10,13,315,18,12,16,148,,13,15,052,17*71
$GPGSV,4,2,15,15,42,036,26,18,43,327,22,20,61,091,19,21,54,265,19*7E
$GPGSV,4,3,15,24,81,074,19,25,02,182,,29,03,203,,32,08,266,*72
$GPGSV,4,4,15,40,13,260,,42,51,134,,50,51,134,*4C
$GSENSORD,0.000,0.000,-0.060
$GPRMC,074212.00,A,2502.67753,N,12132.30695,E,19.144,94.40,241116,,,A*62
$GPVTG,94.40,T,,M,19.144,N,35.455,K,A*0F
$GPGGA,074212.00,2502.67753,N,12132.30695,E,1,07,1.35,17.6,M,17.0,M,,*67
$GPSDC
$GPGSA,A,3,05,13,15,20,24,21,18,,,,,,2.05,1.35,1.55*0E
$GPGSV,4,1,15,05,12,117,28,10,13,315,16,12,16,148,17,13,15,052,15*7A
$GPGSV,4,2,15,15,42,036,23,18,43,327,29,20,61,091,19,21,54,265,20*7A
$GPGSV,4,3,15,24,81,074,19,25,02,182,,29,03,203,,32,08,266,17*74
$GPGSV,4,4,15,40,13,260,,42,51,134,,50,51,134,*4C
$GSENSORD,0.060,0.000,0.000
$GPRMC,074213.00,A,2502.67568,N,12132.31380,E,19.171,96.01,241116,,,A*68
$GPVTG,96.01,T,,M,19.171,N,35.505,K,A*0A
$GPGGA,074213.00,2502.67568,N,12132.31380,E,1,07,1.35,17.6,M,17.0,M,,*6C
$GPSDC
$GPGSA,A,3,05,13,15,20,24,21,18,,,,,,2.05,1.35,1.55*0E
$GPGSV,4,1,15,05,12,117,28,10,13,315,15,12,16,148,18,13,15,052,12*71
$GPGSV,4,2,15,15,42,036,20,18,43,327,25,20,61,091,20,21,54,265,21*7E
$GPGSV,4,3,15,24,81,074,19,25,02,182,,29,03,203,,32,08,266,16*75
$GPGSV,4,4,15,40,13,260,,42,51,134,,50,51,134,*4C
$GSENSORD,0.000,0.000,-0.060
$GPRMC,074214.00,A,2502.67394,N,12132.32073,E,19.148,98.10,241116,,,A*62
$GPVTG,98.10,T,,M,19.148,N,35.462,K,A*0E
$GPGGA,074214.00,2502.67394,N,12132.32073,E,1,07,1.35,17.6,M,17.0,M,,*62
$GPSDC
$GPGSA,A,3,05,13,15,20,24,21,18,,,,,,2.05,1.35,1.55*0E
$GPGSV,4,1,15,05,12,117,28,10,13,315,12,12,16,148,18,13,15,052,13*77
$GPGSV,4,2,15,15,42,036,21,18,43,327,24,20,61,091,20,21,54,265,21*7E
$GPGSV,4,3,15,24,81,074,20,25,02,182,,29,03,203,,32,08,266,15*7C
$GPGSV,4,4,15,40,13,260,,42,51,134,,50,51,134,*4C
$GSENSORD,0.000,0.000,0.000
$GPRMC,074215.00,A,2502.67378,N,12132.32814,E,19.862,95.92,241116,,,A*6E
$GPVTG,95.92,T,,M,19.862,N,36.785,K,A*01
$GPGGA,074215.00,2502.67378,N,12132.32814,E,1,07,1.35,18.0,M,17.0,M,,*61
$GPSDC
$GPGSA,A,3,05,13,15,20,24,21,18,,,,,,2.05,1.35,1.55*0E
$GPGSV,4,1,15,05,12,117,13,10,13,315,10,12,16,148,16,13,15,052,13*73
$GPGSV,4,2,15,15,42,036,21,18,43,327,23,20,61,091,19,21,54,265,22*70
$GPGSV,4,3,15,24,81,074,21,25,02,182,,29,03,203,,32,08,266,16*7E
$GPGSV,4,4,15,40,13,260,,42,51,134,,50,51,134,*4C
$GSENSORD,0.000,0.060,-0.060
$GPRMC,074216.00,A,2502.67259,N,12132.33417,E,18.967,97.12,241116,,,A*6E
$GPVTG,97.12,T,,M,18.967,N,35.126,K,A*02
$GPGGA,074216.00,2502.67259,N,12132.33417,E,1,09,0.92,18.1,M,17.0,M,,*6D
$GPSDC
$GPGSA,A,3,05,13,15,12,20,24,21,32,18,,,,1.39,0.92,1.03*0F
$GPGSV,4,1,15,05,12,117,13,10,13,315,13,12,16,148,18,13,15,052,13*7E
$GPGSV,4,2,15,15,42,036,19,18,43,327,20,20,61,091,19,21,54,265,23*79
$GPGSV,4,3,15,24,81,074,21,25,02,182,,29,03,203,,32,08,266,15*7D
$GPGSV,4,4,15,40,13,260,,42,51,134,,50,51,134,*4C
$GSENSORD,0.060,0.000,-0.060
$GPRMC,074217.00,A,2502.67186,N,12132.34149,E,20.025,97.09,241116,,,A*69
$GPVTG,97.09,T,,M,20.025,N,37.087,K,A*04
$GPGGA,074217.00,2502.67186,N,12132.34149,E,1,09,0.92,18.7,M,17.0,M,,*62
$GPSDC
$GPGSA,A,3,05,13,15,12,20,24,21,32,18,,,,1.39,0.92,1.03*0F
$GPGSV,4,1,15,05,12,117,11,10,13,315,12,12,16,148,31,13,15,052,13*76
$GPGSV,4,2,15,15,42,036,18,18,43,327,18,20,61,091,20,21,54,265,20*7A
$GPGSV,4,3,15,24,81,074,21,25,02,182,,29,03,203,,32,08,266,16*7E
$GPGSV,4,4,15,40,13,260,,42,51,134,,50,51,134,*4C
$GSENSORD,0.000,0.060,0.000
$GPRMC,074218.00,A,2502.67118,N,12132.34899,E,20.459,93.48,241116,,,A*6B
$GPVTG,93.48,T,,M,20.459,N,37.890,K,A*04
$GPGGA,074218.00,2502.67118,N,12132.34899,E,1,09,0.92,18.4,M,17.0,M,,*6D
$GPSDC
$GPGSA,A,3,05,13,15,12,20,24,21,32,18,,,,1.39,0.92,1.03*0F
$GPGSV,4,1,15,05,12,117,15,10,13,315,10,12,16,148,36,13,15,052,14*70
$GPGSV,4,2,15,15,42,036,19,18,43,327,18,20,61,091,18,21,54,265,19*7A
$GPGSV,4,3,15,24,81,074,19,25,02,182,,29,03,203,,32,08,266,14*77
$GPGSV,4,4,15,40,13,260,,42,51,134,,50,51,134,*4C
$GSENSORD,0.060,0.000,-0.060
$GPRMC,074219.00,A,2502.66981,N,12132.35419,E,19.135,96.74,241116,,,A*69
$GPVTG,96.74,T,,M,19.135,N,35.438,K,A*07
$GPGGA,074219.00,2502.66981,N,12132.35419,E,1,09,0.92,19.6,M,17.0,M,,*63
$GPSDC
$GPGSA,A,3,05,13,15,12,20,24,21,32,18,,,,1.39,0.92,1.03*0F
$GPGSV,4,1,15,05,12,117,26,10,13,315,12,12,16,148,33,13,15,052,15*76
$GPGSV,4,2,15,15,42,036,19,18,43,327,18,20,61,091,17,21,54,265,18*74
$GPGSV,4,3,15,24,81,074,18,25,02,182,,29,03,203,,32,08,266,11*73
$GPGSV,4,4,15,40,13,260,,42,51,134,,50,51,134,*4C
$GSENSORD,0.000,0.060,-0.120
$GPRMC,074220.00,A,2502.66958,N,12132.36099,E,19.720,95.07,241116,,,A*6D
$GPVTG,95.07,T,,M,19.720,N,36.522,K,A*0B
$GPGGA,074220.00,2502.66958,N,12132.36099,E,1,09,0.98,19.8,M,17.0,M,,*66
$GPSDC
$GPGSV,4,1,15,05,12,117,17,10,13,315,12,12,16,148,29,13,15,052,15*7F
$GPGSV,4,2,15,15,42,036,19,18,43,327,18,20,61,091,15,21,54,265,17*79
$GPGSV,4,3,15,24,81,074,18,25,02,182,,29,03,203,,32,08,266,14*76
$GPGSV,4,4,15,40,13,260,,42,51,134,,50,51,134,*4C
$GSENSORD,0.120,0.060,0.120
$GPRMC,074221.00,A,2502.66952,N,12132.36782,E,20.306,94.07,241116,,,A*60
$GPVTG,94.07,T,,M,20.306,N,37.607,K,A*05
$GPGGA,074221.00,2502.66952,N,12132.36782,E,1,09,1.08,20.4,M,17.0,M,,*6E
$GPSDC
$GPGSA,A,3,05,13,15,12,20,24,21,32,18,,,,1.55,1.08,1.11*04
$GPGSV,4,1,15,05,12,117,17,10,13,315,13,12,16,148,20,13,15,052,16*74
$GPGSV,4,2,15,15,42,036,20,18,43,327,18,20,61,091,16,21,54,265,17*70
$GPGSV,4,3,15,24,81,074,18,25,02,182,,29,03,203,,32,08,266,15*77
$GPGSV,4,4,15,40,13,260,,42,51,134,,50,51,134,*4C
$GSENSORD,0.000,0.060,0.060
$GPRMC,074222.00,A,2502.66910,N,12132.37302,E,19.026,94.65,241116,,,A*67
$GPVTG,94.65,T,,M,19.026,N,35.236,K,A*0E
$GPGGA,074222.00,2502.66910,N,12132.37302,E,1,07,1.08,21.0,M,17.0,M,,*6D
$GPSDC
$GPGSA,A,3,13,15,12,20,24,21,32,,,,,,1.55,1.08,1.11*08
$GPGSV,4,1,15,05,12,117,,10,13,315,14,12,16,148,18,13,15,052,16*7E
$GPGSV,4,2,15,15,42,036,22,18,43,327,,20,61,091,17,21,54,265,16*7B
$GPGSV,4,3,15,24,81,074,17,25,02,182,,29,03,203,,32,08,266,14*79
$GPGSV,4,4,15,40,13,260,,42,51,134,,50,51,134,*4C
$GSENSORD,0.000,0.000,-0.120
$GPRMC,074223.00,A,2502.66805,N,12132.37816,E,17.998,97.36,241116,,,A*6A
$GPVTG,97.36,T,,M,17.998,N,33.331,K,A*09
$GPGGA,074223.00,2502.66805,N,12132.37816,E,1,07,1.08,21.5,M,17.0,M,,*62
$GPSDC
$GPGSA,A,3,13,15,12,20,24,21,32,,,,,,1.55,1.08,1.11*08
$GPGSV,4,1,15,05,12,117,22,10,13,315,26,12,16,148,15,13,15,052,16*72
$GPGSV,4,2,15,15,42,036,20,18,43,327,22,20,61,091,18,21,54,265,17*77
$GPGSV,4,3,15,24,81,074,22,25,02,182,,29,03,203,,32,08,266,12*79
$GPGSV,4,4,15,40,13,260,,42,51,134,,50,51,134,*4C
$GSENSORD,0.000,0.060,-0.060
$GPRMC,074224.00,A,2502.66756,N,12132.38470,E,18.976,96.76,241116,,,A*6D
$GPVTG,96.76,T,,M,18.976,N,35.144,K,A*05
$GPGGA,074224.00,2502.66756,N,12132.38470,E,1,06,1.45,21.2,M,17.0,M,,*60
$GPSDC
$GPGSA,A,3,13,15,12,20,24,21,,,,,,,2.14,1.45,1.58*0B
$GPGSV,4,1,15,05,12,117,20,10,13,315,26,12,16,148,15,13,15,052,16*70
$GPGSV,4,2,15,15,42,036,26,18,43,327,20,20,61,091,21,21,54,265,18*76
$GPGSV,4,3,15,24,81,074,23,25,02,182,,29,03,203,,32,08,266,09*72
$GPGSV,4,4,15,40,13,260,,42,51,134,,50,51,134,*4C
$GSENSORD,0.000,0.000,0.000
$GPRMC,074225.00,A,2502.66703,N,12132.39046,E,18.550,96.35,241116,,,A*63
$GPVTG,96.35,T,,M,18.550,N,34.354,K,A*08
$GPGGA,074225.00,2502.66703,N,12132.39046,E,1,07,1.19,21.0,M,17.0,M,,*6B
$GPSDC
$GPGSA,A,3,13,15,12,20,24,21,18,,,,,,1.90,1.19,1.48*05
$GPGSV,4,1,15,05,12,117,19,10,13,315,24,12,16,148,17,13,15,052,16*7A
$GPGSV,4,2,15,15,42,036,26,18,43,327,20,20,61,091,21,21,54,265,18*76
$GPGSV,4,3,15,24,81,074,31,25,02,182,,29,03,203,,32,08,266,09*71
$GPGSV,4,4,15,40,13,260,,42,51,134,,50,51,134,*4C
$GSENSORD,0.060,0.120,-0.060
$GPRMC,074226.00,A,2502.66651,N,12132.39593,E,18.017,96.75,241116,,,A*69
$GPVTG,96.75,T,,M,18.017,N,33.367,K,A*0D
$GPGGA,074226.00,2502.66651,N,12132.39593,E,1,08,1.16,21.7,M,17.0,M,,*64
$GPGSA,A,3,05,13,15,12,20,24,21,18,,,,,1.81,1.16,1.39*09
$GPGSV,4,1,15,05,12,117,19,10,13,315,22,12,16,148,19,13,15,052,15*71
$GPGSV,4,2,15,15,42,036,24,18,43,327,21,20,61,091,21,21,54,265,18*75
$GPGSV,4,3,15,24,81,074,24,25,02,182,,29,03,203,,32,08,266,09*75
$GPGSV,4,4,15,40,13,260,,42,51,134,,50,51,134,*4C
$GSENSORD,0.060,0.120,0.060
$GPRMC,074227.00,A,2502.66583,N,12132.40015,E,16.345,98.07,241116,,,A*60
$GPVTG,98.07,T,,M,16.345,N,30.271,K,A*09
$GPGGA,074227.00,2502.66583,N,12132.40015,E,1,08,1.24,22.1,M,17.0,M,,*68
$GPGSV,4,1,15,05,12,117,19,10,13,315,22,12,16,148,22,13,15,052,14*78
$GPGSV,4,2,15,15,42,036,22,18,43,327,21,20,61,091,19,21,54,265,16*76
$GPGSV,4,3,15,24,81,074,22,25,02,182,,29,03,203,,32,08,266,08*72
$GPGSV,4,4,15,40,13,260,,42,51,134,,50,51,134,*4C
$GSENSORD,0.000,0.000,0.000
$GPRMC,074228.00,A,2502.66585,N,12132.40592,E,16.649,95.38,241116,,,A*6B
$GPVTG,95.38,T,,M,16.649,N,30.834,K,A*0A
$GPGGA,074228.00,2502.66585,N,12132.40592,E,1,07,1.24,22.3,M,17.0,M,,*66
$GPSDC
$GPGSA,A,3,05,13,12,20,24,21,18,,,,,,1.87,1.24,1.40*04
$GPGSV,4,1,15,05,12,117,20,10,13,315,21,12,16,148,21,13,15,052,15*73
$GPGSV,4,2,15,15,42,036,,18,43,327,21,20,61,091,18,21,54,265,14*75
$GPGSV,4,3,15,24,81,074,20,25,02,182,,29,03,203,,32,08,266,*78
$GPGSV,4,4,15,40,13,260,,42,51,134,,50,51,134,*4C
$GSENSORD,0.000,0.060,-0.060
$GPRMC,074229.00,A,2502.66608,N,12132.41237,E,17.218,93.64,241116,,,A*6B
$GPVTG,93.64,T,,M,17.218,N,31.887,K,A*0D
$GPGGA,074229.00,2502.66608,N,12132.41237,E,1,07,1.24,22.3,M,17.0,M,,*68
$GPSDC
$GPGSA,A,3,05,13,12,20,24,21,18,,,,,,1.87,1.24,1.40*04
$GPGSV,4,1,15,05,12,117,19,10,13,315,19,12,16,148,20,13,15,052,24*71
$GPGSV,4,2,15,15,42,036,22,18,43,327,21,20,61,091,18,21,54,265,14*75
$GPGSV,4,3,15,24,81,074,19,25,02,182,,29,03,203,,32,08,266,*72
$GPGSV,4,4,15,40,13,260,,42,51,134,,50,51,134,*4C
$GSENSORD,0.000,0.000,0.000
$GPRMC,074230.00,A,2502.66671,N,12132.41802,E,17.008,91.63,241116,,,A*67
$GPVTG,91.63,T,,M,17.008,N,31.499,K,A*08
$GPGGA,074230.00,2502.66671,N,12132.41802,E,1,07,1.24,22.0,M,17.0,M,,*61
$GPSDC
$GPGSA,A,3,05,13,12,20,24,21,18,,,,,,1.87,1.24,1.40*04
$GPGSV,4,1,15,05,12,117,19,10,13,315,18,12,16,148,19,13,15,052,22*7C
$GPGSV,4,2,15,15,42,036,20,18,43,327,21,20,61,091,17,21,54,265,15*79
$GPGSV,4,3,15,24,81,074,18,25,02,182,,29,03,203,,32,08,266,*73
$GPGSV,4,4,15,40,13,260,,42,51,134,,50,51,134,*4C
$GSENSORD,0.000,0.060,-0.060
$GPRMC,074231.00,A,2502.66776,N,12132.42395,E,16.894,90.13,241116,,,A*6C
$GPVTG,90.13,T,,M,16.894,N,31.288,K,A*04
$GPGGA,074231.00,2502.66776,N,12132.42395,E,1,07,1.24,21.2,M,17.0,M,,*61
$GPSDC
$GPGSA,A,3,05,13,12,20,24,21,18,,,,,,1.87,1.24,1.40*04
$GPGSV,4,1,15,05,12,117,19,10,13,315,16,12,16,148,30,13,15,052,29*72
$GPGSV,4,2,15,15,42,036,20,18,43,327,20,20,61,091,17,21,54,265,16*7B
$GPGSV,4,3,15,24,81,074,18,25,02,182,,29,03,203,,32,08,266,*73
$GPGSV,4,4,15,40,13,260,,42,51,134,,50,51,134,*4C
$GSENSORD,0.000,0.000,-0.060
$GPRMC,074232.00,A,2502.66845,N,12132.42926,E,16.476,87.84,241116,,,A*6A
$GPVTG,87.84,T,,M,16.476,N,30.514,K,A*0F
$GPGGA,074232.00,2502.66845,N,12132.42926,E,1,08,1.16,20.6,M,17.0,M,,*64
$GPSDC
$GPGSA,A,3,05,13,15,12,20,24,21,18,,,,,1.81,1.16,1.40*07
$GPGSV,4,1,15,05,12,117,18,10,13,315,14,12,16,148,23,13,15,052,23*79
$GPGSV,4,2,15,15,42,036,20,18,43,327,19,20,61,091,17,21,54,265,15*72
$GPGSV,4,3,15,24,81,074,17,25,02,182,,29,03,203,,32,08,266,*7C
$GPGSV,4,4,15,40,13,260,,42,51,134,,50,51,134,*4C
$GSENSORD,0.000,0.060,0.000
$GPRMC,074233.00,A,2502.66959,N,12132.43283,E,14.327,84.88,241116,,,A*6C
$GPVTG,84.88,T,,M,14.327,N,26.533,K,A*03
$GPGGA,074233.00,2502.66959,N,12132.43283,E,1,08,1.16,20.0,M,17.0,M,,*6A
$GPSDC
$GPGSA,A,3,05,13,15,12,20,24,21,18,,,,,1.81,1.16,1.40*07
$GPGSV,4,1,15,05,12,117,20,10,13,315,15,12,16,148,20,13,15,052,23*70
$GPGSV,4,2,15,15,42,036,22,18,43,327,17,20,61,091,18,21,54,265,15*71
$GPGSV,4,3,15,24,81,074,18,25,02,182,,29,03,203,,32,08,266,*73
$GPGSV,4,4,15,40,13,260,,42,51,134,,50,51,134,*4C
$GSENSORD,0.000,0.000,-0.060
$GPRMC,074234.00,A,2502.67122,N,12132.43568,E,12.730,79.63,241116,,,A*6F
$GPVTG,79.63,T,,M,12.730,N,23.576,K,A*04
$GPGGA,074234.00,2502.67122,N,12132.43568,E,1,08,1.16,19.5,M,17.0,M,,*65
$GPSDC
$GPGSA,A,3,05,13,15,12,20,24,21,18,,,,,1.81,1.16,1.40*07
$GPGSV,4,1,15,05,12,117,19,10,13,315,14,12,16,148,19,13,15,052,22*70
$GPGSV,4,2,15,15,42,036,24,18,43,327,16,20,61,091,19,21,54,265,17*75
$GPGSV,4,3,15,24,81,074,21,25,02,182,,29,03,203,,32,08,266,*79
$GPGSV,4,4,15,40,13,260,,42,51,134,,50,51,134,*4C
$GSENSORD,0.000,0.060,0.000
$GPRMC,074235.00,A,2502.67329,N,12132.43916,E,11.956,73.57,241116,,,A*62
$GPVTG,73.57,T,,M,11.956,N,22.142,K,A*06
$GPGGA,074235.00,2502.67329,N,12132.43916,E,1,08,1.16,19.0,M,17.0,M,,*6D
$GPSDC
$GPGSA,A,3,05,13,15,12,20,24,21,18,,,,,1.81,1.16,1.40*07
$GPGSV,4,1,15,05,12,117,21,10,13,315,15,12,16,148,19,13,15,052,29*71
$GPGSV,4,2,15,15,42,036,23,18,43,327,13,20,61,091,19,21,54,265,17*77
$GPGSV,4,3,15,24,81,074,21,25,02,182,,29,03,203,,32,08,266,*79
$GPGSV,4,4,15,40,13,260,,42,51,134,,50,51,134,*4C
$GSENSORD,0.000,0.000,-0.060
$GPRMC,074236.00,A,2502.67299,N,12132.44227,E,10.853,77.98,241116,,,A*67
$GPVTG,77.98,T,,M,10.853,N,20.101,K,A*01
$GPGGA,074236.00,2502.67299,N,12132.44227,E,1,08,1.16,18.8,M,17.0,M,,*63
$GPSDC
$GPGSA,A,3,05,13,15,12,20,24,21,18,,,,,1.81,1.16,1.40*07
$GPGSV,4,1,15,05,12,117,22,10,13,315,14,12,16,148,30,13,15,052,27*76
$GPGSV,4,2,15,15,42,036,21,18,43,327,12,20,61,091,19,21,54,265,17*74
$GPGSV,4,3,15,24,81,074,20,25,02,182,,29,03,203,,32,08,266,*78
$GPGSV,4,4,15,40,13,260,,42,51,134,,50,51,134,*4C
$GSENSORD,0.000,0.000,-0.060
$GPRMC,074237.00,A,2502.67336,N,12132.44433,E,9.289,79.00,241116,,,A*5B
$GPVTG,79.00,T,,M,9.289,N,17.204,K,A*39
$GPGGA,074237.00,2502.67336,N,12132.44433,E,1,08,1.16,18.0,M,17.0,M,,*6D
$GPSDC
$GPGSA,A,3,05,13,15,12,20,24,21,18,,,,,1.81,1.16,1.40*07
$GPGSV,4,1,15,05,12,117,23,10,13,315,13,12,16,148,21,13,15,052,24*73
$GPGSV,4,2,15,15,42,036,22,18,43,327,11,20,61,091,19,21,54,265,17*74
$GPGSV,4,3,15,24,81,074,21,25,02,182,,29,03,203,,32,08,266,*79
$GPGSV,4,4,15,40,13,260,,42,51,134,,50,51,134,*4C
$GSENSORD,0.000,0.000,0.000
$GPRMC,074238.00,A,2502.67437,N,12132.44656,E,8.510,76.55,241116,,,A*5A
$GPVTG,76.55,T,,M,8.510,N,15.760,K,A*35
$GPGGA,074238.00,2502.67437,N,12132.44656,E,1,08,1.16,17.3,M,17.0,M,,*69
$GPSDC
$GPGSA,A,3,05,13,15,12,20,24,21,18,,,,,1.81,1.16,1.40*07
$GPGSV,4,1,15,05,12,117,22,10,13,315,13,12,16,148,19,13,15,052,24*79
$GPGSV,4,2,15,15,42,036,22,18,43,327,13,20,61,091,20,21,54,265,16*7D
$GPGSV,4,3,15,24,81,074,21,25,02,182,,29,03,203,,32,08,266,*79
$GPGSV,4,4,15,40,13,260,,42,51,134,,50,51,134,*4C
$GSENSORD,0.000,0.000,-0.060
$GPRMC,074239.00,A,2502.67493,N,12132.44852,E,7.210,75.49,241116,,,A*59
$GPVTG,75.49,T,,M,7.210,N,13.353,K,A*31
$GPGGA,074239.00,2502.67493,N,12132.44852,E,1,08,1.16,16.4,M,17.0,M,,*6A
$GPSDC
$GPGSA,A,3,05,13,15,12,20,24,21,18,,,,,1.81,1.16,1.40*07
$GPGSV,4,1,15,05,12,117,23,10,13,315,15,12,16,148,16,13,15,052,30*74
$GPGSV,4,2,15,15,42,036,21,18,43,327,14,20,61,091,21,21,54,265,15*7B
$GPGSV,4,3,15,24,81,074,21,25,02,182,,29,03,203,,32,08,266,*79
$GPGSV,4,4,15,40,13,260,,42,51,134,,50,51,134,*4C
$GSENSORD,0.000,0.000,-0.060
$GPRMC,074240.00,A,2502.67445,N,12132.44919,E,4.110,80.06,241116,,,A*53
$GPVTG,80.06,T,,M,4.110,N,7.611,K,A*06
$GPGGA,074240.00,2502.67445,N,12132.44919,E,1,08,1.16,15.6,M,17.0,M,,*60
$GPSDC
$GPGSA,A,3,05,13,15,12,20,24,21,18,,,,,1.81,1.16,1.40*07
$GPGSV,4,1,15,05,12,117,21,10,13,315,16,12,16,148,16,13,15,052,30*75
$GPGSV,4,2,15,15,42,036,21,18,43,327,13,20,61,091,20,21,54,265,16*7E
$GPGSV,4,3,15,24,81,074,21,25,02,182,,29,03,203,,32,08,266,*79
$GPGSV,4,4,15,40,13,260,,42,51,134,,50,51,134,*4C
$GSENSORD,0.000,0.000,-0.060
$GPRMC,074241.00,A,2502.67456,N,12132.45069,E,3.065,89.63,241116,,,A*51
$GPVTG,89.63,T,,M,3.065,N,5.677,K,A*0A
$GPGGA,074241.00,2502.67456,N,12132.45069,E,1,08,1.16,14.7,M,17.0,M,,*6C
$GPSDC
$GPGSA,A,3,05,13,15,12,20,24,21,18,,,,,1.81,1.16,1.40*07
$GPGSV,4,1,15,05,12,117,21,10,13,315,14,12,16,148,16,13,15,052,32*75
$GPGSV,4,2,15,15,42,036,21,18,43,327,14,20,61,091,20,21,54,265,17*78
$GPGSV,4,3,15,24,81,074,23,25,02,182,,29,03,203,,32,08,266,*7B
$GPGSV,4,4,15,40,13,260,,42,51,134,,50,51,134,*4C
$GSENSORD,0.000,0.000,-0.060
$GPRMC,074242.00,A,2502.67464,N,12132.45202,E,2.701,100.19,241116,,,A*65
$GPVTG,100.19,T,,M,2.701,N,5.002,K,A*37
$GPGGA,074242.00,2502.67464,N,12132.45202,E,1,08,1.16,13.6,M,17.0,M,,*67
$GPSDC
$GPGSA,A,3,05,13,15,12,20,24,21,18,,,,,1.81,1.16,1.40*07
$GPGSV,4,1,15,05,12,117,20,10,13,315,14,12,16,148,15,13,14,053,33*76
$GPGSV,4,2,15,15,42,036,20,18,43,327,15,20,61,091,19,21,54,265,18*7D
$GPGSV,4,3,15,24,81,074,24,25,02,182,,29,03,203,,32,08,266,*7C
$GPGSV,4,4,15,40,13,260,,42,51,134,,50,51,134,*4C
$GSENSORD,0.000,0.000,-0.060
$GPRMC,074243.00,A,2502.67500,N,12132.45265,E,1.753,106.05,241116,,,A*69
$GPVTG,106.05,T,,M,1.753,N,3.247,K,A*3D
$GPGGA,074243.00,2502.67500,N,12132.45265,E,1,08,1.16,12.3,M,17.0,M,,*60
$GPSDC
$GPGSA,A,3,05,13,15,12,20,24,21,18,,,,,1.81,1.16,1.40*07
$GPGSV,4,1,15,05,12,117,18,10,13,315,12,12,16,148,15,13,14,053,33*7B
$GPGSV,4,2,15,15,42,036,22,18,43,327,17,20,61,091,22,21,54,265,19*74
$GPGSV,4,3,15,24,81,074,26,25,02,182,,29,03,203,,32,08,266,*7E
$GPGSV,4,4,15,40,13,260,,42,51,134,,50,51,134,*4C
$GSENSORD,0.060,0.000,0.000
$GPRMC,074244.00,A,2502.67536,N,12132.45349,E,0.821,,241116,,,A*73
$GPVTG,,T,,M,0.821,N,1.520,K,A*2E
$GPGGA,074244.00,2502.67536,N,12132.45349,E,1,08,1.16,12.0,M,17.0,M,,*6E
$GPSDC
$GPGSA,A,3,05,13,15,12,20,24,21,18,,,,,1.81,1.16,1.40*07
$GPGSV,4,1,15,05,12,117,18,10,13,315,11,12,16,148,17,13,14,053,33*7A
$GPGSV,4,2,15,15,42,037,22,18,43,327,19,20,61,091,25,21,54,265,19*7C
$GPGSV,4,3,15,24,81,074,25,25,02,182,,29,03,203,,32,08,266,*7D
$GPGSV,4,4,15,40,13,260,,42,51,134,,50,51,134,*4C
$GSENSORD,0.060,0.000,-0.060
$GPRMC,074245.00,A,2502.67550,N,12132.45452,E,0.653,,241116,,,A*74
$GPVTG,,T,,M,0.653,N,1.209,K,A*29
$GPGGA,074245.00,2502.67550,N,12132.45452,E,1,08,1.16,11.5,M,17.0,M,,*64
$GPSDC
$GPGSA,A,3,05,13,15,12,20,24,21,18,,,,,1.81,1.16,1.40*07
$GPGSV,4,1,15,05,12,117,17,10,13,315,11,12,16,148,15,13,14,053,33*77
$GPGSV,4,2,15,15,42,037,24,18,43,327,19,20,61,091,24,21,54,265,17*75
$GPGSV,4,3,15,24,81,074,22,25,02,182,,29,03,203,,32,08,266,*7A
$GPGSV,4,4,15,40,13,260,,42,51,134,,50,51,134,*4C
$GSENSORD,0.000,0.000,0.000
$GPRMC,074246.00,A,2502.67594,N,12132.45523,E,0.749,,241116,,,A*72
$GPVTG,,T,,M,0.749,N,1.388,K,A*2B
$GPGGA,074246.00,2502.67594,N,12132.45523,E,1,08,1.46,10.7,M,17.0,M,,*6E
$GPSDC
$GPGSA,A,3,05,13,15,12,20,24,21,18,,,,,2.05,1.46,1.44*09
$GPGSV,4,1,15,05,12,117,17,10,13,315,11,12,16,148,15,13,14,053,31*75
$GPGSV,4,2,15,15,42,037,24,18,43,327,18,20,61,091,23,21,54,265,15*71
$GPGSV,4,3,15,24,81,074,21,25,02,182,,29,03,203,,32,08,266,*79
$GPGSV,4,4,15,40,13,260,,42,51,134,,50,51,134,*4C
$GSENSORD,0.060,0.000,-0.060
$GPRMC,074247.00,A,2502.67624,N,12132.45590,E,0.883,,241116,,,A*7A
$GPVTG,,T,,M,0.883,N,1.635,K,A*21
$GPGGA,074247.00,2502.67624,N,12132.45590,E,1,08,1.46,10.2,M,17.0,M,,*6A
$GPSDC
$GPGSA,A,3,05,13,15,12,20,24,21,18,,,,,2.05,1.46,1.44*09
$GPGSV,4,1,15,05,12,117,19,10,13,315,14,12,16,148,14,13,14,053,30*7E
$GPGSV,4,2,15,15,42,037,22,18,44,327,18,20,61,091,25,21,54,265,16*75
$GPGSV,4,3,15,24,81,074,21,25,02,182,,29,03,203,,32,08,266,*79
$GPGSV,4,4,15,40,13,260,,42,51,134,,50,51,134,*4C
$GSENSORD,0.000,0.000,0.000
$GPRMC,074248.00,A,2502.67625,N,12132.45664,E,0.686,,241116,,,A*77
$GPVTG,,T,,M,0.686,N,1.270,K,A*2F
$GPGGA,074248.00,2502.67625,N,12132.45664,E,1,08,1.16,9.5,M,17.0,M,,*56
$GPSDC
$GPGSA,A,3,05,13,15,12,20,24,21,18,,,,,1.81,1.16,1.40*07
$GPGSV,4,1,15,05,12,117,19,10,13,315,13,12,16,148,14,13,14,053,30*79
$GPGSV,4,2,15,15,42,037,23,18,44,327,17,20,61,091,25,21,54,265,14*79
$GPGSV,4,3,15,24,81,074,19,25,02,182,,29,03,203,,32,08,266,*72
$GPGSV,4,4,15,40,13,260,,42,51,134,,50,51,134,*4C
$GSENSORD,0.000,0.000,-0.060
$GPRMC,074249.00,A,2502.67624,N,12132.45787,E,0.831,,241116,,,A*79
$GPVTG,,T,,M,0.831,N,1.539,K,A*27
$GPGGA,074249.00,2502.67624,N,12132.45787,E,1,08,1.20,9.8,M,17.0,M,,*52
$GPSDC
$GPGSA,A,3,05,13,15,12,20,24,21,18,,,,,2.00,1.20,1.60*0A
$GPGSV,4,1,15,05,12,117,19,10,13,315,13,12,16,148,15,13,14,053,30*78
$GPGSV,4,2,15,15,42,037,23,18,44,327,18,20,61,092,25,21,54,265,15*74
$GPGSV,4,3,15,24,81,074,19,25,02,182,,29,03,203,,32,08,266,*72
$GPGSV,4,4,15,40,13,260,,42,51,134,,50,51,134,*4C
$GSENSORD,0.000,0.000,-0.060
$GPRMC,074250.00,A,2502.67625,N,12132.45873,E,0.767,,241116,,,A*78
$GPVTG,,T,,M,0.767,N,1.421,K,A*23
$GPGGA,074250.00,2502.67625,N,12132.45873,E,1,08,1.20,10.1,M,17.0,M,,*6E
$GPSDC
$GPGSA,A,3,05,13,15,12,20,24,21,18,,,,,2.00,1.20,1.60*0A
$GPGSV,4,1,15,05,12,117,19,10,13,315,12,12,16,148,15,13,14,053,29*71
$GPGSV,4,2,15,15,42,037,23,18,44,327,18,20,61,092,23,21,54,264,16*70
$GPGSV,4,3,15,24,81,074,20,25,02,182,,29,03,203,,32,08,266,*78
$GPGSV,4,4,15,40,13,260,,42,51,134,,50,51,134,*4C
$GSENSORD,0.060,0.000,0.000
$GPRMC,074251.00,A,2502.67588,N,12132.45913,E,0.038,,241116,,,A*77
$GPVTG,,T,,M,0.038,N,0.070,K,A*2F
$GPGGA,074251.00,2502.67588,N,12132.45913,E,1,08,1.16,10.0,M,17.0,M,,*68
$GPSDC
$GPGSA,A,3,05,13,15,12,20,24,21,18,,,,,1.81,1.16,1.40*07
$GPGSV,4,1,15,05,12,117,19,10,13,315,13,12,16,148,15,13,14,053,27*7E
$GPGSV,4,2,15,15,42,037,23,18,44,327,18,20,61,092,22,21,54,264,16*71
$GPGSV,4,3,15,24,81,074,18,25,02,182,,29,03,203,,32,08,266,*73
$GPGSV,4,4,15,40,13,260,,42,51,134,,50,51,134,*4C
$GSENSORD,0.060,0.000,0.000
$GPRMC,074252.00,A,2502.67574,N,12132.45982,E,0.377,,241116,,,A*77
$GPVTG,,T,,M,0.377,N,0.699,K,A*26
$GPGGA,074252.00,2502.67574,N,12132.45982,E,1,08,1.16,10.6,M,17.0,M,,*66
$GPSDC
$GPGSA,A,3,05,13,15,12,20,24,21,18,,,,,1.81,1.16,1.40*07
$GPGSV,4,1,15,05,12,117,18,10,13,315,13,12,16,148,16,13,14,053,28*73
$GPGSV,4,2,15,15,42,037,31,18,44,327,20,20,61,092,22,21,54,264,17*78
$GPGSV,4,3,15,24,81,074,17,25,02,182,,29,03,203,,32,08,266,*7C
$GPGSV,4,4,15,40,13,260,,42,51,134,,50,51,134,*4C
$GSENSORD,0.000,0.000,-0.060
$GPRMC,074253.00,A,2502.67549,N,12132.46064,E,0.182,,241116,,,A*72
$GPVTG,,T,,M,0.182,N,0.337,K,A*2F
$GPGGA,074253.00,2502.67549,N,12132.46064,E,1,08,1.16,10.7,M,17.0,M,,*6A
$GPSDC
$GPGSA,A,3,05,13,15,12,20,24,21,18,,,,,1.81,1.16,1.40*07
$GPGSV,4,1,15,05,12,117,17,10,13,315,14,12,16,148,16,13,14,053,27*74
$GPGSV,4,2,15,15,42,037,26,18,44,327,19,20,61,092,22,21,54,264,16*75
$GPGSV,4,3,15,24,81,072,16,25,02,182,,29,03,203,,32,08,266,13*79
$GPGSV,4,4,15,40,13,260,,42,51,134,,50,51,134,*4C
$GSENSORD,0.000,0.000,0.000
$GPRMC,074254.00,A,2502.67509,N,12132.46142,E,0.577,,241116,,,A*7A
$GPVTG,,T,,M,0.577,N,1.068,K,A*29
$GPGGA,074254.00,2502.67509,N,12132.46142,E,1,08,1.16,10.4,M,17.0,M,,*6F
$GPSDC
$GPGSA,A,3,05,13,15,12,20,24,21,18,,,,,1.81,1.16,1.40*07
$GPGSV,4,1,15,05,12,117,17,10,13,315,15,12,16,148,14,13,14,053,27*77
$GPGSV,4,2,15,15,42,037,25,18,44,327,18,20,61,092,23,21,54,264,16*76
$GPGSV,4,3,15,24,81,072,21,25,02,182,,29,03,203,,32,08,266,13*7D
$GPGSV,4,4,15,40,13,260,,42,51,134,,50,51,134,*4C
$GSENSORD,0.000,0.000,-0.060
$GPRMC,074255.00,A,2502.67520,N,12132.46210,E,0.273,,241116,,,A*77
$GPVTG,,T,,M,0.273,N,0.506,K,A*26
$GPGGA,074255.00,2502.67520,N,12132.46210,E,1,08,1.16,10.2,M,17.0,M,,*67
$GPSDC
$GPGSA,A,3,05,13,15,12,20,24,21,18,,,,,1.81,1.16,1.40*07
$GPGSV,4,1,15,05,12,117,18,10,13,315,15,12,16,148,14,13,14,053,26*79
$GPGSV,4,2,15,15,42,037,26,18,44,327,18,20,61,092,22,21,54,264,17*75
$GPGSV,4,3,15,24,81,072,22,25,02,182,,29,03,203,,32,08,266,12*7F
$GPGSV,4,4,15,40,13,260,,42,51,134,,50,51,134,*4C
$GSENSORD,0.000,0.000,0.000
$GPRMC,074256.00,A,2502.67526,N,12132.46255,E,0.134,,241116,,,A*73
$GPVTG,,T,,M,0.134,N,0.249,K,A*2A
$GPGGA,074256.00,2502.67526,N,12132.46255,E,1,08,1.16,9.7,M,17.0,M,,*5E
$GPSDC
$GPGSA,A,3,05,13,15,12,20,24,21,18,,,,,1.81,1.16,1.40*07
$GPGSV,4,1,15,05,12,117,18,10,13,315,14,12,16,148,17,13,14,053,25*78
$GPGSV,4,2,15,15,42,037,27,18,44,327,20,20,61,092,22,21,54,264,16*7E
$GPGSV,4,3,15,24,81,072,21,25,02,182,,29,03,203,,32,08,266,10*7E
$GPGSV,4,4,15,40,13,260,,42,51,134,,50,51,134,*4C
$GSENSORD,0.000,0.000,0.000
$GPRMC,074257.00,A,2502.67513,N,12132.46329,E,0.324,,241116,,,A*7D
$GPVTG,,T,,M,0.324,N,0.599,K,A*23
$GPGGA,074257.00,2502.67513,N,12132.46329,E,1,08,1.16,9.6,M,17.0,M,,*52
$GPSDC
$GPGSA,A,3,05,13,15,12,20,24,21,18,,,,,1.81,1.16,1.40*07
$GPGSV,4,1,15,05,12,117,19,10,13,315,16,12,16,148,18,13,14,053,23*72
$GPGSV,4,2,15,15,42,037,25,18,44,327,21,20,61,092,22,21,54,264,16*7D
$GPGSV,4,3,15,24,81,072,20,25,02,182,,29,03,203,,32,08,266,09*77
$GPGSV,4,4,15,40,13,260,,42,51,134,,50,51,134,*4C
$GSENSORD,0.000,0.000,0.000
$GPRMC,074258.00,A,2502.67525,N,12132.46433,E,0.548,,241116,,,A*77
$GPVTG,,T,,M,0.548,N,1.015,K,A*2F
$GPGGA,074258.00,2502.67525,N,12132.46433,E,1,08,1.16,9.4,M,17.0,M,,*56
$GPSDC
$GPGSA,A,3,05,13,15,12,20,24,21,18,,,,,1.81,1.16,1.40*07
$GPGSV,4,1,15,05,12,117,20,10,13,315,16,12,16,148,18,13,14,053,31*7B
$GPGSV,4,2,15,15,42,037,23,18,44,327,21,20,61,092,20,21,54,264,15*7A
$GPGSV,4,3,15,24,81,072,22,25,02,182,,29,03,202,,32,08,266,08*75
$GPGSV,4,4,15,40,13,260,,42,51,134,,50,51,134,*4C
$GSENSORD,0.000,0.000,0.000
$GPRMC,074259.00,A,2502.67494,N,12132.46578,E,1.413,,241116,,,A*7D
$GPVTG,,T,,M,1.413,N,2.616,K,A*27
$GPGGA,074259.00,2502.67494,N,12132.46578,E,1,08,1.16,9.5,M,17.0,M,,*53
$GPSDC
$GPGSA,A,3,05,13,15,12,20,24,21,18,,,,,1.82,1.16,1.40*04
$GPGSV,4,1,15,05,12,117,20,10,13,315,16,12,16,148,18,13,14,053,32*78
$GPGSV,4,2,15,15,42,037,23,18,44,327,21,20,61,092,18,21,54,264,13*77
$GPGSV,4,3,15,24,81,072,21,25,02,182,,29,03,202,,32,08,266,08*76
$GPGSV,4,4,15,40,13,260,,42,51,134,,50,51,134,*4C
$GSENSORD,0.000,0.000,0.000
$GPRMC,074300.00,A,2502.67538,N,12132.46600,E,0.391,,241116,,,A*77
$GPVTG,,T,,M,0.391,N,0.724,K,A*29
$GPGGA,074300.00,2502.67538,N,12132.46600,E,1,08,1.16,9.2,M,17.0,M,,*52
$GPSDC
$GPGSA,A,3,05,13,15,12,20,24,21,18,,,,,1.82,1.16,1.40*04
$GPGSV,4,1,15,05,12,117,19,10,13,315,14,12,16,148,17,13,14,053,33*7E
$GPGSV,4,2,15,15,42,037,22,18,44,327,19,20,61,092,17,21,54,264,13*72
$GPGSV,4,3,15,24,81,072,22,25,02,182,,29,03,202,,32,08,266,09*74
$GPGSV,4,4,15,40,13,260,,42,51,134,,50,51,134,*4C
$GSENSORD,0.000,0.000,0.000
$GPRMC,074301.00,A,2502.67575,N,12132.46642,E,0.336,,241116,,,A*74
$GPVTG,,T,,M,0.336,N,0.622,K,A*23
$GPGGA,074301.00,2502.67575,N,12132.46642,E,1,08,1.16,8.9,M,17.0,M,,*56
$GPSDC
$GPGSA,A,3,05,13,15,12,20,24,21,18,,,,,1.82,1.16,1.40*04
$GPGSV,4,1,15,05,12,117,18,10,13,315,14,12,16,148,17,13,14,053,34*78
$GPGSV,4,2,15,15,42,037,20,18,44,327,16,20,61,092,20,21,54,264,14*7C
$GPGSV,4,3,15,24,81,072,23,25,02,182,,29,03,202,,32,08,266,08*74
$GPGSV,4,4,15,40,13,260,,42,51,134,,50,51,134,*4C
$GSENSORD,0.000,0.000,0.000
$GPRMC,074302.00,A,2502.67603,N,12132.46688,E,0.133,,241116,,,A*74
$GPVTG,,T,,M,0.133,N,0.246,K,A*22
$GPGGA,074302.00,2502.67603,N,12132.46688,E,1,08,1.16,8.7,M,17.0,M,,*5F
$GPSDC
$GPGSA,A,3,05,13,15,12,20,24,21,18,,,,,1.82,1.16,1.40*04
$GPGSV,4,1,15,05,12,117,17,10,13,315,15,12,16,148,17,13,14,053,33*71
$GPGSV,4,2,15,15,42,037,24,18,44,327,17,20,61,092,20,21,54,264,14*79
$GPGSV,4,3,15,24,81,072,23,25,02,182,,29,03,202,,32,08,266,09*75
$GPGSV,4,4,15,40,13,260,,42,51,134,,50,51,134,*4C
$GSENSORD,0.060,0.000,0.000
$GPRMC,074303.00,A,2502.67620,N,12132.46740,E,0.147,,241116,,,A*72
$GPVTG,,T,,M,0.147,N,0.272,K,A*26
$GPGGA,074303.00,2502.67620,N,12132.46740,E,1,08,1.16,8.8,M,17.0,M,,*55
$GPSDC
$GPGSA,A,3,05,13,15,12,20,24,21,18,,,,,1.82,1.16,1.40*04
$GPGSV,4,1,15,05,12,117,16,10,13,315,14,12,16,148,17,13,14,053,34*76
$GPGSV,4,2,15,15,42,037,25,18,44,327,18,20,61,092,16,21,54,264,15*73
$GPGSV,4,3,15,24,81,072,23,25,02,182,,29,03,202,,32,08,266,08*74
$GPGSV,4,4,15,40,13,260,,42,51,134,,50,51,134,*4C
$GSENSORD,0.000,0.000,0.000
$GPRMC,074304.00,A,2502.67636,N,12132.46798,E,0.147,,241116,,,A*77
$GPVTG,,T,,M,0.147,N,0.273,K,A*27
$GPGGA,074304.00,2502.67636,N,12132.46798,E,1,08,1.16,8.7,M,17.0,M,,*5F
$GPSDC
$GPGSA,A,3,05,13,15,12,20,24,21,18,,,,,1.82,1.16,1.40*04
$GPGSV,4,1,15,05,12,117,15,10,13,315,14,12,16,148,18,13,14,053,34*7A
$GPGSV,4,2,15,15,42,037,25,18,44,327,17,20,61,092,14,21,54,264,15*7E
$GPGSV,4,3,15,24,81,072,22,25,02,182,,29,03,202,,32,08,266,08*75
$GPGSV,4,4,15,40,13,260,,42,51,134,,50,51,134,*4C
$GSENSORD,0.000,0.000,0.000
$GPRMC,074305.00,A,2502.67640,N,12132.46827,E,0.368,,241116,,,A*73
$GPVTG,,T,,M,0.368,N,0.682,K,A*22
$GPGGA,074305.00,2502.67640,N,12132.46827,E,1,08,1.16,8.6,M,17.0,M,,*55
$GPSDC
$GPGSA,A,3,05,13,15,12,20,24,21,18,,,,,1.82,1.16,1.40*04
$GPGSV,4,1,15,05,12,117,15,10,13,315,13,12,16,148,19,13,14,053,34*7C
$GPGSV,4,2,15,15,42,037,24,18,44,327,16,20,61,092,12,21,54,264,17*7A
$GPGSV,4,3,15,24,81,072,23,25,02,182,,29,03,202,,32,08,266,08*74
$GPGSV,4,4,15,40,13,260,,42,51,134,,50,51,134,*4C
$GSENSORD,0.000,0.000,-0.060
$GPRMC,074306.00,A,2502.67696,N,12132.46836,E,0.398,,241116,,,A*74
$GPVTG,,T,,M,0.398,N,0.736,K,A*23
$GPGGA,074306.00,2502.67696,N,12132.46836,E,1,08,1.16,8.6,M,17.0,M,,*5D
$GPSDC
$GPGSA,A,3,05,13,15,12,20,24,21,18,,,,,1.82,1.16,1.40*04
$GPGSV,4,1,15,05,12,117,16,10,13,315,12,12,16,148,20,13,14,053,34*74
$GPGSV,4,2,15,15,42,037,24,18,44,327,16,20,61,092,10,21,54,264,17*78
$GPGSV,4,3,15,24,81,072,24,25,02,182,,29,03,202,,32,08,266,08*73
$GPGSV,4,4,15,40,13,260,,42,51,134,,50,51,134,*4C
$GSENSORD,0.000,0.000,0.000
$GPRMC,074307.00,A,2502.67733,N,12132.46880,E,0.490,,241116,,,A*79
$GPVTG,,T,,M,0.490,N,0.907,K,A*20
$GPGGA,074307.00,2502.67733,N,12132.46880,E,1,07,1.22,9.0,M,17.0,M,,*50
$GPSDC
$GPGSA,A,3,05,13,15,12,24,21,18,,,,,,2.00,1.22,1.58*01
$GPGSV,4,1,15,05,12,117,17,10,13,315,11,12,16,148,20,13,14,053,34*76
$GPGSV,4,2,15,15,42,037,24,18,44,327,13,20,61,092,08,21,54,264,16*75
$GPGSV,4,3,15,24,81,072,24,25,02,182,,29,03,202,,32,08,266,08*73
$GPGSV,4,4,15,40,13,260,,42,51,134,,50,51,134,*4C
$GSENSORD,0.000,0.000,0.000
$GPRMC,074308.00,A,2502.67747,N,12132.46924,E,0.254,,241116,,,A*74
$GPVTG,,T,,M,0.254,N,0.471,K,A*22
$GPGGA,074308.00,2502.67747,N,12132.46924,E,1,07,1.22,9.0,M,17.0,M,,*53
$GPSDC
$GPGSA,A,3,05,13,15,12,24,21,18,,,,,,2.00,1.22,1.58*01
$GPGSV,4,1,15,05,12,117,16,10,13,315,08,12,16,148,20,13,14,053,34*7F
$GPGSV,4,2,15,15,42,037,23,18,44,327,12,20,61,092,,21,54,264,16*7B
$GPGSV,4,3,15,24,81,072,24,25,02,182,,29,03,202,,32,08,266,*7B
$GPGSV,4,4,15,40,13,260,,42,51,134,,50,51,134,*4C
$GSENSORD,0.060,0.000,0.000
$GPRMC,074309.00,A,2502.67775,N,12132.46937,E,0.301,,241116,,,A*77
$GPVTG,,T,,M,0.301,N,0.557,K,A*26
$GPGGA,074309.00,2502.67775,N,12132.46937,E,1,06,1.48,9.0,M,17.0,M,,*5C
$GPSDC
$GPGSA,A,3,05,13,15,12,24,21,,,,,,,2.30,1.48,1.76*0B
$GPGSV,4,1,15,05,12,117,17,10,13,315,08,12,16,148,21,13,14,053,34*7F
$GPGSV,4,2,15,15,42,037,23,18,44,327,09,20,61,092,,21,54,264,17*70
$GPGSV,4,3,15,24,81,072,24,25,02,182,,29,03,202,,32,08,266,*7B
$GPGSV,4,4,15,40,13,260,,42,51,134,,50,51,134,*4C
$GSENSORD,0.060,0.000,0.000
$GPRMC,074310.00,A,2502.67828,N,12132.46936,E,0.551,,241116,,,A*7A
$GPVTG,,T,,M,0.551,N,1.020,K,A*21
$GPGGA,074310.00,2502.67828,N,12132.46936,E,1,06,1.48,9.3,M,17.0,M,,*51
$GPSDC
$GPGSA,A,3,05,13,15,12,24,21,,,,,,,2.30,1.48,1.76*0B
$GPGSV,4,1,15,05,12,117,18,10,13,315,,12,16,148,22,13,14,053,34*7B
$GPGSV,4,2,15,15,42,037,23,18,44,327,08,20,61,092,,21,54,264,17*71
$GPGSV,4,3,15,24,81,072,24,25,02,182,,29,03,202,,32,08,266,*7B
$GPGSV,4,4,15,40,13,260,,42,51,134,,50,51,134,*4C
$GSENSORD,0.000,0.000,0.000
$GPRMC,074311.00,A,2502.67866,N,12132.46950,E,0.496,,241116,,,A*7B
$GPVTG,,T,,M,0.496,N,0.918,K,A*28
$GPGGA,074311.00,2502.67866,N,12132.46950,E,1,06,1.48,9.4,M,17.0,M,,*5D
$GPSDC
$GPGSA,A,3,05,13,15,12,24,21,,,,,,,2.30,1.48,1.76*0B
$GPGSV,4,1,15,05,12,117,18,10,13,315,,12,16,148,23,13,14,053,34*7A
$GPGSV,4,2,15,15,42,037,22,18,44,327,,20,61,092,,21,54,264,17*78
$GPGSV,4,3,15,24,81,072,23,25,02,182,,29,03,202,,32,08,266,*7C
$GPGSV,4,4,15,40,13,260,,42,51,134,,50,51,134,*4C
$GSENSORD,0.000,0.000,0.000
$GPRMC,074312.00,A,2502.67892,N,12132.46985,E,0.288,,241116,,,A*72
$GPVTG,,T,,M,0.288,N,0.533,K,A*24
$GPGGA,074312.00,2502.67892,N,12132.46985,E,1,06,1.48,9.7,M,17.0,M,,*5E
$GPSDC
$GPGSA,A,3,05,13,15,12,24,21,,,,,,,2.30,1.48,1.76*0B
$GPGSV,4,1,15,05,12,117,18,10,13,315,,12,16,148,22,13,14,053,34*7B
$GPGSV,4,2,15,15,42,037,21,18,44,327,,20,61,092,,21,54,264,17*7B
$GPGSV,4,3,15,24,81,072,24,25,02,182,,29,03,202,,32,08,266,*7B
$GPGSV,4,4,15,40,13,260,,42,51,134,,50,51,134,*4C
$GSENSORD,0.000,0.000,0.000
$GPRMC,074313.00,A,2502.67899,N,12132.47035,E,0.262,,241116,,,A*7F
$GPVTG,,T,,M,0.262,N,0.485,K,A*2C
$GPGGA,074313.00,2502.67899,N,12132.47035,E,1,06,1.48,9.9,M,17.0,M,,*59
$GPSDC
$GPGSA,A,3,05,13,15,12,24,21,,,,,,,2.30,1.48,1.76*0B
$GPGSV,4,1,15,05,12,117,18,10,13,315,,12,16,148,22,13,14,053,34*7B
$GPGSV,4,2,15,15,42,037,22,18,44,327,,20,61,092,,21,54,264,17*78
$GPGSV,4,3,15,24,81,072,23,25,02,182,,29,03,202,,32,08,266,*7C
$GPGSV,4,4,15,40,13,260,,42,51,134,,50,51,134,*4C
$GSENSORD,0.060,0.000,0.000
$GPRMC,074314.00,A,2502.67917,N,12132.47067,E,0.393,,241116,,,A*77
$GPVTG,,T,,M,0.393,N,0.728,K,A*27
$GPGGA,074314.00,2502.67917,N,12132.47067,E,1,06,1.48,10.1,M,17.0,M,,*6E
$GPSDC
$GPGSA,A,3,05,13,15,12,24,21,,,,,,,2.30,1.48,1.76*0B
$GPGSV,4,1,15,05,12,117,17,10,13,315,,12,16,148,22,13,14,053,34*74
$GPGSV,4,2,15,15,42,037,22,18,44,327,,20,61,092,08,21,54,264,16*71
$GPGSV,4,3,15,24,81,072,23,25,02,182,,29,03,202,,32,08,266,*7C
$GPGSV,4,4,15,40,13,260,,42,51,134,,50,51,134,*4C
$GSENSORD,0.000,0.000,0.000
$GPRMC,074315.00,A,2502.67933,N,12132.47080,E,0.184,,241116,,,A*7D
$GPVTG,,T,,M,0.184,N,0.342,K,A*2B
$GPGGA,074315.00,2502.67933,N,12132.47080,E,1,06,1.48,10.2,M,17.0,M,,*63
$GPSDC
$GPGSA,A,3,05,13,15,12,24,21,,,,,,,2.30,1.48,1.76*0B
$GPGSV,4,1,15,05,12,117,18,10,13,315,,12,16,148,22,13,14,053,34*7B
$GPGSV,4,2,15,15,42,037,21,18,44,327,,20,61,092,14,21,54,264,15*7C
$GPGSV,4,3,15,24,81,072,21,25,02,182,,29,03,202,,32,08,266,*7E
$GPGSV,4,4,15,40,13,260,,42,51,134,,50,51,134,*4C
$GSENSORD,0.000,0.000,0.000
$GPRMC,074316.00,A,2502.67917,N,12132.47142,E,0.593,,241116,,,A*75
$GPVTG,,T,,M,0.593,N,1.099,K,A*2D
$GPGGA,074316.00,2502.67917,N,12132.47142,E,1,06,1.48,10.5,M,17.0,M,,*6E
$GPSDC
$GPGSA,A,3,05,13,15,12,24,21,,,,,,,2.30,1.48,1.76*0B
$GPGSV,4,1,15,05,12,117,18,10,13,315,,12,16,148,22,13,14,053,34*7B
$GPGSV,4,2,15,15,42,037,20,18,44,327,,20,61,092,19,21,54,264,15*70
$GPGSV,4,3,15,24,81,072,20,25,02,182,,29,03,202,,32,08,266,*7F
$GPGSV,4,4,15,40,13,260,,42,51,134,,50,51,134,*4C
$GSENSORD,0.000,0.000,0.000
$GPRMC,074317.00,A,2502.67935,N,12132.47162,E,0.334,,241116,,,A*7D
$GPVTG,,T,,M,0.334,N,0.619,K,A*29
$GPGGA,074317.00,2502.67935,N,12132.47162,E,1,07,1.39,10.7,M,17.0,M,,*68
$GPSDC
$GPGSA,A,3,05,13,15,12,20,24,21,,,,,,2.07,1.39,1.53*0C
$GPGSV,4,1,15,05,12,117,17,10,13,315,,12,16,148,22,13,14,053,34*74
$GPGSV,4,2,15,15,42,037,21,18,44,327,,20,61,092,19,21,54,264,15*71
$GPGSV,4,3,15,24,81,072,18,25,02,182,,29,03,202,,32,08,266,*74
$GPGSV,4,4,15,40,13,260,,42,51,134,,50,51,134,*4C
$GSENSORD,0.060,0.000,0.000
$GPRMC,074318.00,A,2502.67960,N,12132.47193,E,0.052,,241116,,,A*7F
$GPVTG,,T,,M,0.052,N,0.097,K,A*2A
$GPGGA,074318.00,2502.67960,N,12132.47193,E,1,07,1.39,11.3,M,17.0,M,,*6C
$GPSDC
$GPGSA,A,3,05,13,15,12,20,24,21,,,,,,2.07,1.39,1.53*0C
$GPGSV,4,1,15,05,12,117,17,10,13,315,,12,16,148,22,13,14,053,33*73
$GPGSV,4,2,15,15,42,037,22,18,44,327,,20,61,092,20,21,54,264,13*7E
$GPGSV,4,3,15,24,81,072,18,25,02,182,,29,03,202,,32,08,266,*74
$GPGSV,4,4,15,40,13,260,,42,51,134,,50,51,134,*4C
$GSENSORD,0.000,0.000,0.000
$GPRMC,074319.00,A,2502.67937,N,12132.47296,E,0.588,,241116,,,A*78
$GPVTG,,T,,M,0.588,N,1.089,K,A*26
$GPGGA,074319.00,2502.67937,N,12132.47296,E,1,07,1.39,11.8,M,17.0,M,,*62
$GPSDC
$GPGSA,A,3,05,13,15,12,20,24,21,,,,,,2.07,1.39,1.53*0C
$GPGSV,4,1,15,05,12,117,18,10,13,315,,12,16,148,23,13,14,053,33*7D
$GPGSV,4,2,15,15,42,037,23,18,44,327,17,20,61,092,20,21,54,264,13*79
$GPGSV,4,3,15,24,81,072,17,25,02,182,,29,03,202,,32,08,266,*7B
$GPGSV,4,4,15,40,13,260,,42,51,134,,50,51,134,*4C
$GSENSORD,0.000,0.000,0.000
$GPRMC,074320.00,A,2502.67944,N,12132.47343,E,0.349,,241116,,,A*74
$GPVTG,,T,,M,0.349,N,0.646,K,A*29
$GPGGA,074320.00,2502.67944,N,12132.47343,E,1,07,1.39,11.9,M,17.0,M,,*64
$GPSDC
$GPGSA,A,3,05,13,15,12,20,24,21,,,,,,2.07,1.39,1.53*0C
$GPGSV,4,1,15,05,12,117,18,10,13,315,,12,16,148,22,13,14,053,33*7C
$GPGSV,4,2,15,15,42,037,25,18,44,327,17,20,61,092,20,21,54,264,15*79
$GPGSV,4,3,15,24,81,072,15,25,02,182,,29,03,202,,32,08,266,*79
$GPGSV,4,4,15,40,13,260,,42,51,134,,50,51,134,*4C
$GSENSORD,0.000,0.000,0.000
$GPRMC,074321.00,A,2502.67967,N,12132.47326,E,0.189,,241116,,,A*79
$GPVTG,,T,,M,0.189,N,0.350,K,A*25
$GPGGA,074321.00,2502.67967,N,12132.47326,E,1,07,1.39,11.8,M,17.0,M,,*66
$GPSDC
$GPGSA,A,3,05,13,15,12,20,24,21,,,,,,2.07,1.39,1.53*0C
$GPGSV,4,1,15,05,12,117,18,10,13,315,,12,16,148,21,13,14,053,32*7E
$GPGSV,4,2,15,15,42,037,26,18,44,327,17,20,61,092,21,21,54,264,15*7B
$GPGSV,4,3,15,24,81,072,11,25,02,182,,29,03,202,,32,08,266,*7D
$GPGSV,4,4,15,40,13,260,,42,51,134,,50,51,134,*4C
$GSENSORD,0.000,0.000,0.000
$GPRMC,074322.00,A,2502.67961,N,12132.47377,E,0.152,,241116,,,A*7E
$GPVTG,,T,,M,0.152,N,0.281,K,A*2E
$GPGGA,074322.00,2502.67961,N,12132.47377,E,1,06,1.39,12.1,M,17.0,M,,*6C
$GPSDC
$GPGSA,A,3,05,13,15,12,20,21,,,,,,,2.18,1.39,1.68*0C
$GPGSV,4,1,15,05,12,117,18,10,13,315,,12,16,148,21,13,14,053,32*7E
$GPGSV,4,2,15,15,42,037,26,18,44,327,16,20,61,092,21,21,54,264,12*7D
$GPGSV,4,3,15,24,81,072,08,25,02,182,,29,03,202,,32,08,266,*75
$GPGSV,4,4,15,40,13,260,,42,51,134,,50,51,134,*4C
$GSENSORD,0.060,0.000,0.000
$GPRMC,074323.00,A,2502.67886,N,12132.47629,E,1.167,,241116,,,A*7E
$GPVTG,,T,,M,1.167,N,2.161,K,A*26
$GPGGA,074323.00,2502.67886,N,12132.47629,E,1,07,1.17,13.2,M,17.0,M,,*64
$GPSDC
$GPGSV,4,1,15,05,12,117,18,10,13,315,,12,16,148,21,13,14,053,32*7E
$GPGSV,4,2,15,15,42,037,27,18,44,327,16,20,61,092,21,21,54,264,10*7E
$GPGSV,4,3,15,24,81,072,08,25,02,182,,29,03,202,,32,08,266,*75
$GPGSV,4,4,15,40,13,260,,42,51,134,,50,51,134,*4C
$GSENSORD,0.120,0.060,0.000
$GPRMC,074324.00,A,2502.67859,N,12132.47834,E,1.539,,241116,,,A*76
$GPVTG,,T,,M,1.539,N,2.851,K,A*23
$GPGGA,074324.00,2502.67859,N,12132.47834,E,1,07,1.17,14.2,M,17.0,M,,*64
$GPSDC
$GPGSV,4,1,15,05,12,117,20,10,13,315,,12,16,148,19,13,14,053,33*7F
$GPGSV,4,2,15,15,42,037,31,18,44,327,19,20,61,092,22,21,54,264,13*76
$GPGSV,4,3,15,24,81,072,22,25,02,182,,29,03,202,,32,08,266,*7D
$GPGSV,4,4,15,40,13,260,,42,51,134,,50,51,134,*4C
$GSENSORD,0.180,0.060,0.000
$GPRMC,074325.00,A,2502.67857,N,12132.48043,E,3.025,79.78,241116,,,A*5B
$GPVTG,79.78,T,,M,3.025,N,5.603,K,A*08
$GPGGA,074325.00,2502.67857,N,12132.48043,E,1,07,1.17,14.7,M,17.0,M,,*69
$GPSDC
$GPGSV,4,1,15,05,12,117,21,10,13,315,,12,16,148,18,13,14,053,32*7E
$GPGSV,4,2,15,15,42,037,25,18,44,327,20,20,61,092,22,21,54,264,16*7C
$GPGSV,4,3,15,24,81,072,19,25,02,182,,29,03,202,,32,08,266,*75
$GPGSV,4,4,15,40,13,260,,42,51,134,,50,51,134,*4C
$GSENSORD,0.060,0.060,0.000
$GPRMC,074326.00,A,2502.67862,N,12132.48178,E,3.542,76.01,241116,,,A*52
$GPVTG,76.01,T,,M,3.542,N,6.560,K,A*08
$GPGGA,074326.00,2502.67862,N,12132.48178,E,1,07,1.17,14.6,M,17.0,M,,*64
$GPSDC
$GPGSV,4,1,15,05,12,117,21,10,13,315,,12,16,148,19,13,14,053,28*74
$GPGSV,4,2,15,15,42,037,24,18,44,327,24,20,61,092,22,21,54,264,16*79
$GPGSV,4,3,15,24,81,072,16,25,02,182,,29,03,202,,32,08,266,*7A
$GPGSV,4,4,15,40,13,260,,42,51,134,,50,51,134,*4C
$GSENSORD,0.060,0.000,0.000
$GPRMC,074327.00,A,2502.67871,N,12132.48386,E,5.725,75.95,241116,,,A*59
$GPVTG,75.95,T,,M,5.725,N,10.603,K,A*32
$GPGGA,074327.00,2502.67871,N,12132.48386,E,1,08,1.16,14.3,M,17.0,M,,*6F
$GPSDC
$GPGSA,A,3,05,13,15,12,20,24,21,18,,,,,1.82,1.16,1.40*04
$GPGSV,4,1,15,05,12,117,21,10,13,315,,12,17,148,19,13,14,053,31*7D
$GPGSV,4,2,15,15,42,037,24,18,44,327,25,20,61,092,20,21,54,264,18*74
$GPGSV,4,3,15,24,81,072,18,25,02,182,,29,03,202,,32,08,266,*74
$GPGSV,4,4,15,40,13,260,,42,51,134,,50,51,134,*4C
$GSENSORD,0.060,0.060,0.000
$GPRMC,074328.00,A,2502.67893,N,12132.48514,E,5.993,75.69,241116,,,A*57
$GPVTG,75.69,T,,M,5.993,N,11.098,K,A*37
$GPGGA,074328.00,2502.67893,N,12132.48514,E,1,08,1.16,13.5,M,17.0,M,,*60
$GPSDC
$GPGSA,A,3,05,13,15,12,20,24,21,18,,,,,1.82,1.16,1.40*04
$GPGSV,4,1,15,05,12,117,21,10,13,315,,12,17,148,20,13,14,053,23*74
$GPGSV,4,2,15,15,42,037,23,18,44,327,23,20,61,092,20,21,54,264,18*75
$GPGSV,4,3,15,24,81,072,20,25,02,182,,29,03,202,,32,08,266,*7F
$GPGSV,4,4,15,40,13,260,,42,51,134,,50,51,134,*4C
$GSENSORD,0.120,0.060,0.000
$GPRMC,074329.00,A,2502.67894,N,12132.48644,E,5.668,77.06,241116,,,A*57
$GPVTG,77.06,T,,M,5.668,N,10.498,K,A*32
$GPGGA,074329.00,2502.67894,N,12132.48644,E,1,08,1.16,13.1,M,17.0,M,,*64
$GPSDC
$GPGSA,A,3,05,13,15,12,20,24,21,18,,,,,1.82,1.16,1.40*04
$GPGSV,4,1,15,05,12,117,21,10,13,315,,12,17,148,21,13,14,053,22*74
$GPGSV,4,2,15,15,42,037,22,18,44,327,21,20,61,092,20,21,54,264,18*76
$GPGSV,4,3,15,24,81,072,19,25,02,182,,29,03,202,,32,08,266,*75
$GPGSV,4,4,15,40,13,260,,42,51,134,,50,51,134,*4C
$GSENSORD,0.180,0.060,0.060
$GPRMC,074330.00,A,2502.67864,N,12132.48826,E,6.162,81.17,241116,,,A*5D
$GPVTG,81.17,T,,M,6.162,N,11.413,K,A*37
$GPGGA,074330.00,2502.67864,N,12132.48826,E,1,08,1.16,12.5,M,17.0,M,,*6C
$GPSDC
$GPGSA,A,3,05,13,15,12,20,24,21,18,,,,,1.82,1.16,1.40*04
$GPGSV,4,1,15,05,12,117,20,10,13,315,,12,17,148,21,13,14,053,21*76
$GPGSV,4,2,15,15,42,037,23,18,44,327,19,20,61,092,21,21,54,264,19*7C
$GPGSV,4,3,15,24,81,072,19,25,02,182,,29,03,202,,32,08,266,*75
$GPGSV,4,4,15,40,13,260,,42,51,134,,50,51,134,*4C
$GSENSORD,0.120,0.060,0.060
$GPRMC,074331.00,A,2502.67828,N,12132.49079,E,7.383,84.46,241116,,,A*5A
$GPVTG,84.46,T,,M,7.383,N,13.673,K,A*3C
$GPGGA,074331.00,2502.67828,N,12132.49079,E,1,08,1.16,12.1,M,17.0,M,,*62
$GPSDC
$GPGSA,A,3,05,13,15,12,20,24,21,18,,,,,1.82,1.16,1.40*04
$GPGSV,4,1,15,05,12,117,20,10,13,315,,12,17,148,22,13,14,053,20*74
$GPGSV,4,2,15,15,42,037,21,18,44,327,18,20,61,092,21,21,54,264,19*7F
$GPGSV,4,3,15,24,81,072,20,25,02,182,,29,03,202,,32,08,266,*7F
$GPGSV,4,4,15,40,13,260,,42,51,134,,50,51,134,*4C
$GSENSORD,0.060,0.060,0.000
$GPRMC,074332.00,A,2502.67789,N,12132.49347,E,8.533,86.69,241116,,,A*5E
$GPVTG,86.69,T,,M,8.533,N,15.803,K,A*3E
$GPGGA,074332.00,2502.67789,N,12132.49347,E,1,08,1.16,11.8,M,17.0,M,,*61
$GPSDC
$GPGSA,A,3,05,13,15,12,20,24,21,18,,,,,1.82,1.16,1.40*04
$GPGSV,4,1,15,05,12,117,21,10,13,315,,12,17,148,21,13,14,053,20*76
$GPGSV,4,2,15,15,42,037,19,18,44,327,15,20,61,092,22,21,54,264,17*74
$GPGSV,4,3,15,24,81,072,20,25,02,182,,29,03,202,,32,08,266,*7F
$GPGSV,4,4,15,40,13,260,,42,51,134,,50,51,134,*4C
$GSENSORD,0.000,0.000,-0.060
$GPRMC,074333.00,A,2502.67841,N,12132.49687,E,9.816,84.58,241116,,,A*56
$GPVTG,84.58,T,,M,9.816,N,18.179,K,A*3C
$GPGGA,074333.00,2502.67841,N,12132.49687,E,1,08,1.16,10.6,M,17.0,M,,*6D
$GPSDC
$GPGSA,A,3,05,13,15,12,20,24,21,18,,,,,1.82,1.16,1.40*04
$GPGSV,4,1,15,05,12,117,20,10,13,315,,12,17,148,19,13,14,053,34*79
$GPGSV,4,2,15,15,42,037,20,18,44,327,14,20,61,092,21,21,54,264,16*7D
$GPGSV,4,3,15,24,81,072,19,25,02,182,,29,03,202,,32,08,266,*75
$GPGSV,4,4,15,40,13,260,,42,51,134,,50,51,134,*4C
$GSENSORD,0.120,0.000,-0.060
$GPRMC,074334.00,A,2502.67855,N,12132.49984,E,9.894,83.83,241116,,,A*53
$GPVTG,83.83,T,,M,9.894,N,18.323,K,A*3A
$GPGGA,074334.00,2502.67855,N,12132.49984,E,1,08,1.16,9.7,M,17.0,M,,*5A
$GPSDC
$GPGSA,A,3,05,13,15,12,20,24,21,18,,,,,1.82,1.16,1.40*04
$GPGSV,4,1,15,05,12,117,22,10,13,315,,12,17,148,19,13,14,053,22*7C
$GPGSV,4,2,15,15,42,037,21,18,44,327,13,20,61,092,20,21,54,264,16*7A
$GPGSV,4,3,15,24,81,072,19,25,02,182,,29,03,202,,32,08,266,*75
$GPGSV,4,4,15,40,13,260,,42,51,134,,50,51,134,*4C
$GSENSORD,0.000,0.000,-0.060
$GPRMC,074335.00,A,2502.67826,N,12132.50274,E,9.635,85.19,241116,,,A*5A
$GPVTG,85.19,T,,M,9.635,N,17.845,K,A*3E
$GPGGA,074335.00,2502.67826,N,12132.50274,E,1,08,1.16,8.8,M,17.0,M,,*5D
$GPSDC
$GPGSA,A,3,05,13,15,12,20,24,21,18,,,,,1.82,1.16,1.40*04
$GPGSV,4,1,15,05,12,117,21,10,13,315,,12,17,148,19,13,14,053,20*7D
$GPGSV,4,2,15,15,42,037,21,18,44,327,15,20,61,092,21,21,54,264,16*7D
$GPGSV,4,3,15,24,81,072,19,25,02,182,,29,03,202,,32,08,266,*75
$GPGSV,4,4,15,40,13,260,,42,51,134,,50,51,134,*4C
$GSENSORD,0.000,0.000,0.000
$GPRMC,074336.00,A,2502.67801,N,12132.50502,E,8.779,86.38,241116,,,A*52
$GPVTG,86.38,T,,M,8.779,N,16.258,K,A*31
$GPGGA,074336.00,2502.67801,N,12132.50502,E,1,08,1.16,8.6,M,17.0,M,,*53
$GPSDC
$GPGSA,A,3,05,13,15,12,20,24,21,18,,,,,1.82,1.16,1.40*04
$GPGSV,4,1,15,05,12,117,20,10,13,315,,12,17,148,18,13,14,053,19*77
$GPGSV,4,2,15,15,42,037,21,18,44,327,16,20,61,092,21,21,54,264,16*7E
$GPGSV,4,3,15,24,81,072,22,25,02,182,,29,03,202,,32,08,266,*7D
$GPGSV,4,4,15,40,13,260,,42,51,134,,50,51,134,*4C
$GSENSORD,0.000,0.000,-0.060
$GPRMC,074337.00,A,2502.67821,N,12132.50729,E,8.082,85.71,241116,,,A*57
$GPVTG,85.71,T,,M,8.082,N,14.967,K,A*39
$GPGGA,074337.00,2502.67821,N,12132.50729,E,1,08,1.16,8.5,M,17.0,M,,*58
$GPSDC
$GPGSA,A,3,05,13,15,12,20,24,21,18,,,,,1.82,1.16,1.40*04
$GPGSV,4,1,15,05,12,117,17,10,13,315,,12,17,148,17,13,14,053,16*73
$GPGSV,4,2,15,15,42,037,22,18,44,327,16,20,61,092,22,21,54,264,15*7D
$GPGSV,4,3,15,24,81,072,21,25,02,182,,29,03,202,,32,08,266,*7E
$GPGSV,4,4,15,40,13,260,,42,51,134,,50,51,134,*4C
$GSENSORD,0.060,0.000,-0.060
$GPRMC,074338.00,A,2502.67813,N,12132.50971,E,7.946,85.72,241116,,,A*57
$GPVTG,85.72,T,,M,7.946,N,14.717,K,A*3D
$GPGGA,074338.00,2502.67813,N,12132.50971,E,1,08,1.16,8.8,M,17.0,M,,*58
$GPSDC
$GPGSA,A,3,05,13,15,12,20,24,21,18,,,,,1.82,1.16,1.40*04
$GPGSV,4,1,15,05,12,117,16,10,13,315,,12,17,148,15,13,14,053,15*73
$GPGSV,4,2,15,15,42,037,20,18,44,327,17,20,61,092,22,21,54,264,14*7F
$GPGSV,4,3,15,24,81,072,21,25,02,182,,29,03,202,,32,08,266,*7E
$GPGSV,4,4,15,40,13,260,,42,51,134,,50,51,134,*4C
$GSENSORD,0.000,0.060,-0.060
$GPRMC,074339.00,A,2502.67927,N,12132.51129,E,7.170,80.34,241116,,,A*5E
$GPVTG,80.34,T,,M,7.170,N,13.278,K,A*3C
$GPGGA,074339.00,2502.67927,N,12132.51129,E,1,07,1.47,9.4,M,17.0,M,,*5D
$GPSDC
$GPGSA,A,3,05,13,15,12,20,24,18,,,,,,2.06,1.47,1.44*08
$GPGSV,4,1,15,05,12,117,14,10,13,315,,12,17,148,16,13,14,053,13*74
$GPGSV,4,2,15,15,42,037,17,18,44,327,17,20,61,092,22,21,54,264,19*76
$GPGSV,4,3,15,24,81,070,20,25,02,182,,29,03,202,,32,08,266,*7D
$GPGSV,4,4,15,40,13,260,,42,51,134,,50,51,134,*4C
$GSENSORD,0.060,0.000,-0.120
$GPRMC,074340.00,A,2502.68114,N,12132.51354,E,7.514,70.32,241116,,,A*50
$GPVTG,70.32,T,,M,7.514,N,13.915,K,A*33
$GPGGA,074340.00,2502.68114,N,12132.51354,E,1,07,1.51,9.8,M,17.0,M,,*57
$GPSDC
$GPGSA,A,3,05,13,15,12,20,24,18,,,,,,2.14,1.51,1.52*0B
$GPGSV,4,1,15,05,12,117,14,10,13,315,19,12,17,148,17,13,14,053,12*7C
$GPGSV,4,2,15,15,42,037,16,18,44,327,16,20,61,092,22,21,54,264,19*76
$GPGSV,4,3,15,24,81,070,19,25,03,181,,29,03,202,13,32,08,266,*77
$GPGSV,4,4,15,40,13,260,,42,51,134,,50,51,134,*4C
$GSENSORD,0.000,0.000,0.060
$GPRMC,074341.00,A,2502.68183,N,12132.51559,E,7.306,66.63,241116,,,A*52
$GPVTG,66.63,T,,M,7.306,N,13.531,K,A*3F
$GPGGA,074341.00,2502.68183,N,12132.51559,E,1,05,1.92,10.0,M,17.0,M,,*6E
$GPSDC
$GPGSA,A,3,15,12,20,24,18,,,,,,,,2.71,1.92,1.91*0F
$GPGSV,4,1,15,05,12,117,,10,13,315,19,12,17,148,19,13,14,053,09*7D
$GPGSV,4,2,15,15,42,037,18,18,44,327,15,20,61,092,23,21,54,264,18*7B
$GPGSV,4,3,15,24,81,070,19,25,03,181,,29,03,202,10,32,08,266,*74
$GPGSV,4,4,15,40,13,260,,42,51,134,,50,51,134,*4C
$GSENSORD,0.000,0.000,0.000
$GPRMC,074342.00,A,2502.68176,N,12132.51650,E,6.007,66.36,241116,,,A*52
$GPVTG,66.36,T,,M,6.007,N,11.125,K,A*3F
$GPGGA,074342.00,2502.68176,N,12132.51650,E,1,05,1.92,9.8,M,17.0,M,,*5D
$GPSDC
$GPGSA,A,3,15,12,20,24,18,,,,,,,,2.71,1.92,1.91*0F
$GPGSV,4,1,15,05,12,117,,10,13,315,19,12,17,148,19,13,14,053,08*7C
$GPGSV,4,2,15,15,42,037,17,18,44,327,13,20,61,092,23,21,54,264,16*7C
$GPGSV,4,3,15,24,81,070,17,25,03,181,,29,03,202,08,32,08,266,*73
$GPGSV,4,4,15,40,13,260,,42,51,134,,50,51,134,*4C
$GSENSORD,0.000,0.000,-0.060
$GPRMC,074343.00,A,2502.68133,N,12132.51748,E,5.158,69.51,241116,,,A*5C
$GPVTG,69.51,T,,M,5.158,N,9.553,K,A*05
$GPGGA,074343.00,2502.68133,N,12132.51748,E,1,06,1.37,9.7,M,17.0,M,,*56
$GPSDC
$GPGSA,A,3,15,12,20,24,21,18,,,,,,,2.34,1.37,1.89*0B
$GPGSV,4,1,15,05,12,117,,10,13,315,19,12,17,148,18,13,14,053,07*72
$GPGSV,4,2,15,15,42,037,15,18,44,327,11,20,61,092,22,21,54,264,15*7E
$GPGSV,4,3,15,24,81,070,17,25,03,181,,29,03,202,08,32,08,266,*73
$GPGSV,4,4,15,40,13,260,,42,51,134,,50,51,134,*4C
$GSENSORD,0.000,0.060,0.000
$GPRMC,074344.00,A,2502.68180,N,12132.51750,E,4.357,68.43,241116,,,A*54
$GPVTG,68.43,T,,M,4.357,N,8.069,K,A*06
$GPGGA,074344.00,2502.68180,N,12132.51750,E,1,06,1.37,9.6,M,17.0,M,,*51
$GPSDC
$GPGSA,A,3,15,12,20,24,21,18,,,,,,,2.34,1.37,1.89*0B
$GPGSV,4,1,15,05,12,117,,10,13,315,18,12,17,148,18,13,14,053,08*7C
$GPGSV,4,2,15,15,42,037,14,18,44,327,10,20,61,092,23,21,54,264,14*7E
$GPGSV,4,3,15,24,81,070,17,25,03,181,,29,02,202,08,32,08,266,*72
$GPGSV,4,4,15,40,13,260,,42,51,134,,50,51,134,*4C
$GSENSORD,0.000,0.000,-0.060
$GPRMC,074345.00,A,2502.68215,N,12132.51892,E,4.752,69.07,241116,,,A*5B
$GPVTG,69.07,T,,M,4.752,N,8.802,K,A*03
$GPGGA,074345.00,2502.68215,N,12132.51892,E,1,07,1.20,9.2,M,17.0,M,,*5D
$GPSDC
$GPGSA,A,3,13,15,12,20,24,21,18,,,,,,1.91,1.20,1.49*0F
$GPGSV,4,1,15,05,12,117,,10,13,315,17,12,17,148,18,13,14,053,10*7A
$GPGSV,4,2,15,15,42,037,15,18,44,327,11,20,61,092,22,21,54,264,15*7E
$GPGSV,4,3,15,24,81,070,18,25,03,181,,29,02,202,08,32,08,266,*7D
$GPGSV,4,4,15,40,13,260,,42,51,134,,50,51,134,*4C
$GSENSORD,0.000,0.000,-0.060
$GPRMC,074346.00,A,2502.68149,N,12132.51838,E,3.457,71.14,241116,,,A*58
$GPVTG,71.14,T,,M,3.457,N,6.402,K,A*0B
$GPGGA,074346.00,2502.68149,N,12132.51838,E,1,07,1.20,9.1,M,17.0,M,,*57
$GPSDC
$GPGSA,A,3,13,15,12,20,24,21,18,,,,,,1.91,1.20,1.49*0F
$GPGSV,4,1,15,05,12,117,,10,13,315,16,12,17,148,18,13,14,053,10*7B
$GPGSV,4,2,15,15,42,037,16,18,44,327,11,20,61,092,22,21,54,264,15*7D
$GPGSV,4,3,15,24,81,070,19,25,03,181,,29,02,202,08,32,08,266,*7C
$GPGSV,4,4,15,40,13,260,,42,51,134,,50,51,134,*4C
$GSENSORD,0.000,0.000,0.000
$GPRMC,074347.00,A,2502.67979,N,12132.51897,E,3.174,,241116,,,A*71
$GPVTG,,T,,M,3.174,N,5.878,K,A*20
$GPGGA,074347.00,2502.67979,N,12132.51897,E,1,07,1.20,9.0,M,17.0,M,,*56
$GPSDC
$GPGSA,A,3,13,15,12,20,24,21,18,,,,,,1.91,1.20,1.49*0F
$GPGSV,4,1,15,05,12,117,,10,13,315,16,12,17,148,18,13,14,053,13*78
$GPGSV,4,2,15,15,42,037,15,18,44,327,11,20,61,092,21,21,54,264,14*7C
$GPGSV,4,3,15,24,81,070,18,25,03,181,,29,02,202,08,32,08,267,*7C
$GPGSV,4,4,15,40,13,260,,42,51,134,,50,51,134,*4C
$GSENSORD,0.000,0.000,-0.060
$GPRMC,074348.00,A,2502.67912,N,12132.51966,E,2.900,,241116,,,A*76
$GPVTG,,T,,M,2.900,N,5.371,K,A*28
$GPGGA,074348.00,2502.67912,N,12132.51966,E,1,07,1.20,9.2,M,17.0,M,,*59
$GPSDC
$GPGSA,A,3,13,15,12,20,24,21,18,,,,,,1.91,1.20,1.49*0F
$GPGSV,4,1,15,05,12,117,,10,13,315,17,12,17,148,24,13,14,053,13*76
$GPGSV,4,2,15,15,42,037,16,18,44,327,10,20,61,092,20,21,54,264,14*7F
$GPGSV,4,3,15,24,81,070,18,25,03,181,,29,02,202,09,32,08,267,*7D
$GPGSV,4,4,15,40,13,260,,42,51,134,,50,51,134,*4C
$GSENSORD,0.060,0.060,0.000
$GPRMC,074349.00,A,2502.67813,N,12132.52035,E,2.709,,241116,,,A*7C
$GPVTG,,T,,M,2.709,N,5.016,K,A*2D
$GPGGA,074349.00,2502.67813,N,12132.52035,E,1,07,1.20,8.4,M,17.0,M,,*53
$GPSDC
$GPGSA,A,3,13,15,12,20,24,21,18,,,,,,1.91,1.20,1.49*0F
$GPGSV,4,1,15,05,12,117,19,10,13,315,17,12,17,148,35,13,14,053,13*7E
$GPGSV,4,2,15,15,42,037,15,18,44,327,11,20,61,092,20,21,54,264,13*7A
$GPGSV,4,3,15,24,81,070,16,25,03,181,,29,02,202,08,32,08,267,*72
$GPGSV,4,4,15,40,13,260,,42,51,134,,50,51,134,*4C
$GSENSORD,0.120,0.060,0.060
$GPRMC,074350.00,A,2502.67786,N,12132.52184,E,3.200,81.90,241116,,,A*5F
$GPVTG,81.90,T,,M,3.200,N,5.926,K,A*04
$GPGGA,074350.00,2502.67786,N,12132.52184,E,1,07,1.20,7.3,M,17.0,M,,*5B
$GPSDC
$GPGSA,A,3,13,15,12,20,24,21,18,,,,,,1.91,1.20,1.49*0F
$GPGSV,4,1,15,05,12,117,17,10,13,315,17,12,17,148,31,13,14,053,13*74
$GPGSV,4,2,15,15,42,037,14,18,44,327,14,20,61,092,20,21,54,264,12*7F
$GPGSV,4,3,15,24,81,070,15,25,03,181,,29,02,202,08,32,08,267,*71
$GPGSV,4,4,15,40,13,260,,42,51,134,,50,51,134,*4C
$GSENSORD,0.120,0.000,0.000
$GPRMC,074351.00,A,2502.67799,N,12132.52282,E,3.300,81.71,241116,,,A*5B
$GPVTG,81.71,T,,M,3.300,N,6.111,K,A*05
$GPGGA,074351.00,2502.67799,N,12132.52282,E,1,07,1.20,6.7,M,17.0,M,,*54
$GPSDC
$GPGSA,A,3,13,15,12,20,24,21,18,,,,,,1.91,1.20,1.49*0F
$GPGSV,4,1,15,05,12,117,12,10,13,315,19,12,17,148,24,13,14,053,17*7F
$GPGSV,4,2,15,15,42,037,17,18,44,327,17,20,61,092,21,21,54,264,12*7E
$GPGSV,4,3,15,24,81,070,15,25,03,181,,29,02,202,,32,08,267,*79
$GPGSV,4,4,15,40,13,260,,42,51,134,,50,51,134,*4C
$GSENSORD,0.060,0.060,-0.060
$GPRMC,074352.00,A,2502.67809,N,12132.52439,E,3.454,78.20,241116,,,A*5C
$GPVTG,78.20,T,,M,3.454,N,6.397,K,A*0D
$GPGGA,074352.00,2502.67809,N,12132.52439,E,1,07,1.20,6.3,M,17.0,M,,*53
$GPSDC
$GPGSA,A,3,13,15,12,20,24,21,18,,,,,,1.91,1.20,1.49*0F
$GPGSV,4,1,15,05,12,117,09,10,13,315,21,12,17,148,21,13,14,053,16*7A
$GPGSV,4,2,15,15,42,037,19,18,44,327,21,20,61,092,21,21,54,264,14*73
$GPGSV,4,3,15,24,81,070,17,25,03,181,,29,02,202,,32,08,267,*7B
$GPGSV,4,4,15,40,13,260,,42,51,134,,50,51,134,*4C
$GSENSORD,0.000,0.060,-0.060
$GPRMC,074353.00,A,2502.67866,N,12132.52645,E,4.258,71.37,241116,,,A*5F
$GPVTG,71.37,T,,M,4.258,N,7.887,K,A*04
$GPGGA,074353.00,2502.67866,N,12132.52645,E,1,07,1.20,6.0,M,17.0,M,,*51
$GPSDC
$GPGSA,A,3,13,15,12,20,24,21,18,,,,,,1.91,1.20,1.49*0F
$GPGSV,4,1,15,05,12,117,08,10,13,315,23,12,17,148,19,13,14,053,16*72
$GPGSV,4,2,15,15,42,037,19,18,44,327,21,20,61,092,21,21,54,264,13*74
$GPGSV,4,3,15,24,81,070,18,25,03,181,,29,02,202,,32,08,267,*74
$GPGSV,4,4,15,40,13,260,,42,51,134,,50,51,134,*4C
$GSENSORD,0.000,0.060,0.000
$GPRMC,074354.00,A,2502.67909,N,12132.52667,E,3.662,64.30,241116,,,A*59
$GPVTG,64.30,T,,M,3.662,N,6.781,K,A*05
$GPGGA,074354.00,2502.67909,N,12132.52667,E,1,07,1.20,5.9,M,17.0,M,,*54
$GPSDC
$GPGSA,A,3,13,15,12,20,24,21,18,,,,,,1.91,1.20,1.49*0F
